<?xml version="1.0"?>
<gpx creator="GPS Visualizer http://www.gpsvisualizer.com/" version="1.1" xmlns="http://www.topografix.com/GPX/1/1" xmlns:xsi="http://www.w3.org/2001/XMLSchema-instance" xsi:schemaLocation="http://www.topografix.com/GPX/1/1 http://www.topografix.com/GPX/1/1/gpx.xsd">
<wpt lat="42.953" lon="-92.875">
  <name>ACKL</name>
  <desc>ACKL/Ackley Creek County Park  CP PH:641.756.3490   SITES:40  AMEN:E DP DW SH L$ approx 1.0 mi SW of Marble Rock 42.953 -92.875</desc>
</wpt>
<wpt lat="41.738" lon="-93.724">
  <name>ACOR</name>
  <desc>ACOR/Acorn Valley - Saylorville Lake  COE PH:515.276.0429 early jun-late aug  SITES:70  AMEN:E DP DW SH RS PA approx 11.2 mi NW of Des Moines 41.738 -93.724</desc>
</wpt>
<wpt lat="41.498" lon="-94.643">
  <name>ADAI</name>
  <desc>ADAI/Adair City Park  CP PH:641.742.3751   SITES:12  AMEN:E SH approx 0.2 mi S  of Adair 41.498 -94.643</desc>
</wpt>
<wpt lat="43.12" lon="-92.21">
  <name>ADOL</name>
  <desc>ADOL/Adolph Munson Park  CP      AMEN:NH PT approx 6.8 mi NE of New Hampton 43.12 -92.21</desc>
</wpt>
<wpt lat="43.09" lon="-92.348">
  <name>AIRP</name>
  <desc>AIRP/Airport Lake Park  CP   COMM:primitive - tent SITES:50  AMEN:E PT approx 2.6 mi NW of New Hampton 43.09 -92.348</desc>
</wpt>
<wpt lat="42.832" lon="-96.556">
  <name>AKRO</name>
  <desc>AKRO/Akron City Park  CP      AMEN:E DW SH L$ approx 0.3 mi NE of Akron 42.832 -96.556</desc>
</wpt>
<wpt lat="41.711" lon="-94.926">
  <name>ALBE</name>
  <desc>ALBE/Albert the Bull CG  CP PH:712.563.3856   SITES:40  AMEN:E DP DW SH approx 0.6 mi SE of Audubon 41.711 -94.926</desc>
</wpt>
<wpt lat="42.88" lon="-92.313">
  <name>ALCO</name>
  <desc>ALCO/Alcock Park  CP PH:319.882.4742 early may-late oct  SITES:40  AMEN:E DP DW SH L$ approx 0.2 mi W of Frederika 42.88 -92.313</desc>
</wpt>
<wpt lat="42.998" lon="-96.005">
  <name>ALTO</name>
  <desc>ALTO/Alton Roadside Park  CP      AMEN:E DP DW SH L$ approx 0.8 mi N of Alton 42.998 -96.005</desc>
</wpt>
<wpt lat="43.052" lon="-94.247">
  <name>AMBR</name>
  <desc>AMBR/Ambrose Call State Park  SP PH:515.295.3669 early may-late sep  SITES:15  AMEN:NH RS approx 1.4 mi SW of Algona 43.052 -94.247</desc>
</wpt>
<wpt lat="42.026" lon="-93.609">
  <name>AMES</name>
  <desc>AMES/Ames Bandshell City Park  CP      AMEN:NH ND NS N$ approx 0.8 mi E of Ames 42.026 -93.609</desc>
</wpt>
<wpt lat="43.366" lon="-95.131">
  <name>ARNO</name>
  <desc>ARNO/Arnolds Park City Park  CP PH:712.332.2341    approx 0.6 mi SW of Arnolds Park 43.366 -95.131</desc>
</wpt>
<wpt lat="41.432" lon="-95.59">
  <name>ARRO</name>
  <desc>ARRO/Arrowhead Park  CP PH:712.485.2295   SITES:60  AMEN:E DP DW SH L$ approx 1.8 mi SE of Neola 41.432 -95.59</desc>
</wpt>
<wpt lat="41.814" lon="-93.289">
  <name>ASHT</name>
  <desc>ASHT/Ashton Wildwood Park  CP   COMM:dense woods-observatory   AMEN:NH ND approx 7.1 mi W of Baxter 41.814 -93.289</desc>
</wpt>
<wpt lat="40.768" lon="-91.968">
  <name>AUST</name>
  <desc>AUST/Austin County Park  CP   COMM:primitive   AMEN:NH NW approx 2.6 mi N  of Keosauqua 40.768 -91.968</desc>
</wpt>
<wpt lat="42.616" lon="-91.56">
  <name>BACK</name>
  <desc>BACK/Backbone State Park  SP PH:563.924.2527 all year  SITES:125  AMEN:WES DP SH RS approx 2.6 mi N  of Dundee 42.616 -91.56</desc>
</wpt>
<wpt lat="42.447" lon="-91.411">
  <name>BAIL</name>
  <desc>BAIL/Baileys Ford  CP PH:563.927.3410   SITES:50  AMEN:E DP DW SH L$ approx 3.6 mi SE of Manchester. 42.447 -91.411</desc>
</wpt>
<wpt lat="42.56" lon="-90.953">
  <name>BANK</name>
  <desc>BANK/Bankston Park  CP PH:563.556.6745   SITES:50  AMEN:NH ND NS approx 3.6 mi SE of Holy Cross 42.56 -90.953</desc>
</wpt>
<wpt lat="42.583" lon="-92.787">
  <name>BEAV</name>
  <desc>BEAV/Beaver Meadows Co Park  CP PH:319.278.4237   SITES:20  AMEN:E DP FT DW SH approx 0.4 mi N of Parkersburg 42.583 -92.787</desc>
</wpt>
<wpt lat="42.768" lon="-93.236">
  <name>BEED</name>
  <desc>BEED/Beeds Lake State Park  SP PH:641.456.2047 all year  SITES:144  AMEN:WES DP DW SH RS approx 2.2 mi NW of Hampton 42.768 -93.236</desc>
</wpt>
<wpt lat="42.247" lon="-90.423">
  <name>BELV</name>
  <desc>BELV/Bellevue State Park  SP PH:563.872.4019 all year  SITES:50  AMEN:E DP SH RS approx 0.8 mi S  of Bellevue 42.247 -90.423</desc>
</wpt>
<wpt lat="42.34" lon="-93.889">
  <name>BELM</name>
  <desc>BELM/Bells Mills County Park  CP PH:515.832.9570   SITES:60  AMEN:E DP DW SH L$ approx 5.1 mi N of Stratford 42.34 -93.889</desc>
</wpt>
<wpt lat="41.386" lon="-92.151">
  <name>BELD</name>
  <desc>BELD/Belva - Deer Rec Area  CP PH:641.622.3757   SITES:56  AMEN:E DP DW SH approx 4.6 mi NE of Sigourney 41.386 -92.151</desc>
</wpt>
<wpt lat="41.746" lon="-90.922">
  <name>BENN</name>
  <desc>BENN/Bennett Park  CP PH:563.886.6930   SITES:13  AMEN:E FT DW SH approx 2.7 mi E of Bennett 41.746 -90.922</desc>
</wpt>
<wpt lat="42.162" lon="-91.918">
  <name>BENT</name>
  <desc>BENT/Benton City  -  Fry Area  CP PH:319.472.3318   SITES:25  AMEN:E approx 5.2 mi E of Vinton 42.162 -91.918</desc>
</wpt>
<wpt lat="40.725" lon="-91.852">
  <name>BENS</name>
  <desc>BENS/Bentonsport  CP PH:319.293.3589     AMEN:E approx 0.1 mi E of Bentonsport 40.725 -91.852</desc>
</wpt>
<wpt lat="42.526" lon="-93.386">
  <name>BESS</name>
  <desc>BESS/Bessman-Kemp Co Park  CP      AMEN:NH ND NS approx 0.6 mi NW of Alden 42.526 -93.386</desc>
</wpt>
<wpt lat="40.952" lon="-91.226">
  <name>BIGH</name>
  <desc>BIGH/Big Hollow Creek Park  CP PH:319.753.8260   SITES:48  AMEN:WE DP FT DW SH approx  mi  of Pleasant Grove 40.952 -91.226</desc>
</wpt>
<wpt lat="42.556" lon="-92.434">
  <name>BIGW</name>
  <desc>BIGW/Big Woods Lake  CP PH:319.266.6813     AMEN:NH approx 1.5 mi N of Cedar Falls 42.556 -92.434</desc>
</wpt>
<wpt lat="42.306" lon="-96.326">
  <name>BIGE</name>
  <desc>BIGE/Bigelow County Park  CP PH:712.946.7114     AMEN:E DP approx 1.9 mi W of Salix 42.306 -96.326</desc>
</wpt>
<wpt lat="42.563" lon="-92.478">
  <name>BLAP</name>
  <desc>BLAP/Black Hawk County Park  CP PH:319.433.7275     AMEN:E 40ft approx 2.5 mi NW of Cedar Falls 42.563 -92.478</desc>
</wpt>
<wpt lat="42.292" lon="-95.017">
  <name>BLAC</name>
  <desc>BLAC/Black Hawk State Park  SP PH:712.657.8712 all year  SITES:128  AMEN:E DP DW SH RS L$ approx 2.3 mi SE of Lake View 42.292 -95.017</desc>
</wpt>
<wpt lat="43.044" lon="-91.212">
  <name>BLOO</name>
  <desc>BLOO/Bloody Run County Park  CP PH:563.245.1516   SITES:19  AMEN:NH approx 1.7 mi W of Marquette 43.044 -91.212</desc>
</wpt>
<wpt lat="41.701" lon="-93.685">
  <name>BOBS</name>
  <desc>BOBS/Bob Shetler - Saylorville Lake  COE PH:515.276.0873 early may-late sep  SITES:70  AMEN:WES DP DW SH RS PA approx 8.0 mi NW of Des Moines 41.701 -93.685</desc>
</wpt>
<wpt lat="40.708" lon="-93.398">
  <name>BOBW</name>
  <desc>BOBW/Bobwhite State Park  SP PH:641.873.4670   SITES:30  AMEN:E ND NS NR approx 1.7 mi W of Allerton 40.708 -93.398</desc>
</wpt>
<wpt lat="41.396" lon="-95.363">
  <name>BOTN</name>
  <desc>BOTN/Botna Bend County Park  CP PH:712.741.5465 all year  SITES:40  AMEN:WES DP DW SH L$ approx 0.4 mi N  of Hancock 41.396 -95.363</desc>
</wpt>
<wpt lat="42.236" lon="-93.04">
  <name>BREK</name>
  <desc>BREK/Brekke Memorial Park  CP   COMM:primitive   AMEN:NH ND FT DW NS approx 1.4 mi SE of Union 42.236 -93.04</desc>
</wpt>
<wpt lat="40.876" lon="-93.012">
  <name>BRID</name>
  <desc>BRID/Bridgeview - Rathbun Lake  COE PH:641.724.3062 early may-late sep  SITES:110  AMEN:E DP DW SH RS PA L$ approx 10.1 mi W of Moravia 40.876 -93.012</desc>
</wpt>
<wpt lat="42.432" lon="-93.802">
  <name>BRIG</name>
  <desc>BRIG/Briggs Woods Park  CP PH:515.832.9570   SITES:80  AMEN:WES DP 40ft DW SH L$ approx 2.7 mi S  of Webster City 42.432 -93.802</desc>
</wpt>
<wpt lat="41.224" lon="-91.85">
  <name>BRIN</name>
  <desc>BRIN/Brinton Timber  CP      AMEN:NH ND NS approx 3.7 mi NW of Brighton 41.224 -91.85</desc>
</wpt>
<wpt lat="42.306" lon="-96.326">
  <name>BROW</name>
  <desc>BROW/Browns Lake  -  Bigelow Park  CP PH:712.946.7114   SITES:40 approx 2.0 mi W of Salix 42.306 -96.326</desc>
</wpt>
<wpt lat="42.306" lon="-96.326">
  <name>BROW</name>
  <desc>BROW/Browns Lake Bigelow Park  CP PH:712.946.7114     AMEN:E FT DW SH approx 2.0 mi W of Salix 42.306 -96.326</desc>
</wpt>
<wpt lat="42.394" lon="-93.983">
  <name>BRUS</name>
  <desc>BRUS/Brushy Creek  State Rec Area  SRA PH:515.543.8298 all year  SITES:180  AMEN:E DP SH RS approx 4.2 mi NE of Lehigh 42.394 -93.983</desc>
</wpt>
<wpt lat="40.85" lon="-92.869">
  <name>BUCK</name>
  <desc>BUCK/Buck Creek - Rathbun Lake  COE PH:641.724.3206 early may-late sep  SITES:40  AMEN:E DP SH RS PA approx 3.8 mi SW of Moravia 40.85 -92.869</desc>
</wpt>
<wpt lat="42.879" lon="-91.209">
  <name>BUCK</name>
  <desc>BUCK/Buck Creek County Park  CP   COMM:primitive   AMEN:NH DW  42.879 -91.209</desc>
</wpt>
<wpt lat="42.884" lon="-95.338">
  <name>BUEN</name>
  <desc>BUEN/Buena Vista Co Park  CP PH:712.295.7985   SITES:18  AMEN:E FT DW SH RS L$ approx 4.7 mi W of Linn Grove 42.884 -95.338</desc>
</wpt>
<wpt lat="42.471" lon="-91.687">
  <name>BUFA</name>
  <desc>BUFA/Buffalo Creek Area  CP   COMM:primitive   AMEN:NH ND VT NS approx 2.4 mi E of Winthrop 42.471 -91.687</desc>
</wpt>
<wpt lat="42.287" lon="-91.542">
  <name>BUFC</name>
  <desc>BUFC/Buffalo Creek County Park  CP PH:319.892.6450   SITES:18  AMEN:WE DP approx 0.7 mi NW of Coggon 42.287 -91.542</desc>
</wpt>
<wpt lat="41.454" lon="-90.745">
  <name>BUFF</name>
  <desc>BUFF/Buffalo Shores County Park  CP PH:563.328.3281   SITES:65  AMEN:WE DP DW SH approx 1.2 mi W of Buffalo 41.454 -90.745</desc>
</wpt>
<wpt lat="41.935" lon="-90.182">
  <name>BULG</name>
  <desc>BULG/Bulgers Hollow - Mississippi River  COE PH:815.259.3628   SITES:25  AMEN:NH DP NS NR L$ approx 6.2 mi N of Clinton 41.935 -90.182</desc>
</wpt>
<wpt lat="42.637" lon="-96.319">
  <name>BURO</name>
  <desc>BURO/Bur Oak - Hillview County Rec Area  CP    SITES:18  AMEN:NH VT DW NS approx  mi  of Hinton 42.637 -96.319</desc>
</wpt>
<wpt lat="43.488" lon="-94.401">
  <name>BURT</name>
  <desc>BURT/Burt Lake County Park  CP PH:515.295.2138 early apr-late oct COMM:noisy   AMEN:E DP DW L$ approx 8.4 mi NW of Swea City 43.488 -94.401</desc>
</wpt>
<wpt lat="42.844" lon="-92.761">
  <name>CAMP</name>
  <desc>CAMP/Camp Comfort   CP    SITES:40  AMEN:E ND FT DW NS approx  mi  of Greene 42.844 -92.761</desc>
</wpt>
<wpt lat="42.308" lon="-95.043">
  <name>CAMC</name>
  <desc>CAMC/Camp Crescent Park  CP PH:712.657.2189     AMEN:E DP DW SH L$ approx 0.6 mi E of Lake View 42.308 -95.043</desc>
</wpt>
<wpt lat="41.162" lon="-91.014">
  <name>CAPP</name>
  <desc>CAPP/Cappy Russell Access  COE   COMM:no facilities   AMEN:NH ND NT NW NS NR N$ approx 4.6 mi N of Oakville 41.162 -91.014</desc>
</wpt>
<wpt lat="41.237" lon="-95.424">
  <name>CARS</name>
  <desc>CARS/Carson City Park  CP    SITES:15  AMEN:WE DP FT DW SH L$ approx  mi  of Carson 41.237 -95.424</desc>
</wpt>
<wpt lat="41.509" lon="-94.517">
  <name>CASE</name>
  <desc>CASE/Casey City Park - Abram Rutt  CP PH:641.746.3315 all year  SITES:10  AMEN:E DP DW SH L$ approx 0.3 mi N of Casey 41.509 -94.517</desc>
</wpt>
<wpt lat="42.76" lon="-92.494">
  <name>CEDA</name>
  <desc>CEDA/Cedar Bend Park  CP    SITES:40  AMEN:E DP DW SH N$ approx 2.6 mi NW of Waverly 42.76 -92.494</desc>
</wpt>
<wpt lat="43.283" lon="-92.855">
  <name>CEDA</name>
  <desc>CEDA/Cedar Bridge County Park  CP    SITES:18  AMEN:WE DP FT DW SH approx 1.8 mi W of Osage 43.283 -92.855</desc>
</wpt>
<wpt lat="41.258" lon="-92.859">
  <name>CEDA</name>
  <desc>CEDA/Cedar Creek Access  CP   COMM:primitive   AMEN:NH ND NS approx 11.1 mi W of Oskaloosa 41.258 -92.859</desc>
</wpt>
<wpt lat="41.721" lon="-91.235">
  <name>CEDA</name>
  <desc>CEDA/Cedar Valley Co Park  CP    SITES:30  AMEN:E ND l$ approx 26.2 mi N of Cedar Bluffs 41.721 -91.235</desc>
</wpt>
<wpt lat="42.959" lon="-92.548">
  <name>CEDV</name>
  <desc>CEDV/Cedar View Park  CP PH:641.435.4156     AMEN:E DW SH approx 0.7 mi NW of Nashua 42.959 -92.548</desc>
</wpt>
<wpt lat="42.11" lon="-91.138">
  <name>CENT</name>
  <desc>CENT/Central Park  CP PH:563.487.3541 mid apr-mid oct  SITES:100  AMEN:WES DP FT DW approx 2.6 mi W of Center Junctio 42.11 -91.138</desc>
</wpt>
<wpt lat="41.303" lon="-92.206">
  <name>CHAC</name>
  <desc>CHAC/Chacauqua River Access  CP   COMM:river ramp - primitive - unknown facilities   AMEN:NH ND NS approx  mi  of Sigourney 41.303 -92.206</desc>
</wpt>
<wpt lat="42.738" lon="-95.557">
  <name>CHEK</name>
  <desc>CHEK/Cherokee City Park  CP PH:712.225.5749     AMEN:E DP approx 0.8 mi S  of Cherokee 42.738 -95.557</desc>
</wpt>
<wpt lat="41.732" lon="-93.68">
  <name>CHER</name>
  <desc>CHER/Cherry Glen - Saylorville Lake  COE PH:515.964.8792 mid apr-mid oct  SITES:125  AMEN:WES DP 60ft DW SH RS PA approx 9.8 mi N  of Des Moines 41.732 -93.68</desc>
</wpt>
<wpt lat="41.791" lon="-93.429">
  <name>CHIC</name>
  <desc>CHIC/Chichaqua Bottoms Greenbelt  CP PH:515.967.2596   SITES:36  AMEN:E DW SH approx 7.1 mi S  of Maxwell 41.791 -93.429</desc>
</wpt>
<wpt lat="43.033" lon="-92.503">
  <name>CHIS</name>
  <desc>CHIS/Chickasaw Park  CP      AMEN:NH ND PT NS approx 2.4 mi W of Ionia 43.033 -92.503</desc>
</wpt>
<wpt lat="43.07" lon="-96.17">
  <name>CHIL</name>
  <desc>CHIL/Childrens Park  CP PH:712.722.0761     AMEN:E ND NS NR L$ approx 0.8 mi SE of Sioux Center 43.07 -96.17</desc>
</wpt>
<wpt lat="43.423" lon="-91.939">
  <name>CHIM</name>
  <desc>CHIM/Chimney Rock County Park  CP   COMM:primitive   AMEN:NH ND VT NS NR approx 9.2 mi E of Cresco 43.423 -91.939</desc>
</wpt>
<wpt lat="40.863" lon="-93.499">
  <name>CIND</name>
  <desc>CIND/Cinder Path RV Park  CP PH:641.877.6841   SITES:14  AMEN:E DP DW NS approx 0.3 mi N  of Humeston 40.863 -93.499</desc>
</wpt>
<wpt lat="41.458" lon="-90.809">
  <name>CLAR</name>
  <desc>CLAR/Clarks Ferry - Mississippi River  COE PH:563.381.4043 early apr-late sep  SITES:45  AMEN:E DP SH RS PA approx 12.3 mi E of Muscatine 41.458 -90.809</desc>
</wpt>
<wpt lat="43.111" lon="-93.389">
  <name>CLEA</name>
  <desc>CLEA/Clear Lake State Park  SP PH:641.357.4212 all year  SITES:215  AMEN:WES DP 60ft DW SH RS L$ approx 2.3 mi S  of Clear Lake 43.111 -93.389</desc>
</wpt>
<wpt lat="42.351" lon="-95.476">
  <name>COBB</name>
  <desc>COBB/Cobb City Park  CP PH:712.364.2958   SITES:45  AMEN:WE DP DW SH L$ approx 0.4 mi NW of Ida Grove 42.351 -95.476</desc>
</wpt>
<wpt lat="41.255" lon="-95.136">
  <name>COCK</name>
  <desc>COCK/Cocklin Fish Farm  CP PH:712.769.2372   SITES:56  AMEN:E FT NS approx 1.4 mi N of Griswold 41.255 -95.136</desc>
</wpt>
<wpt lat="42.494" lon="-91.534">
  <name>COFF</name>
  <desc>COFF/Coffins Grove  CP PH:563.927.3410   SITES:25  AMEN:E DP approx 3.9 mi W of Manchester. 42.494 -91.534</desc>
</wpt>
<wpt lat="41.291" lon="-95.084">
  <name>COLS</name>
  <desc>COLS/Cold Spring Park  CP PH:712.769.2372   SITES:80  AMEN:E DP DW SH approx 1.0 mi S  of Lewis 41.291 -95.084</desc>
</wpt>
<wpt lat="43.156" lon="-92.642">
  <name>COLW</name>
  <desc>COLW/Colwell County Park  CP PH:641.756.3490     AMEN:NH ND NS N$ approx 2.4 mi W of Colwell 43.156 -92.642</desc>
</wpt>
<wpt lat="42.624" lon="-94.465">
  <name>COOP</name>
  <desc>COOP/Coopers Cove Co Park  CP  mid apr-mid oct  SITES:12  AMEN:E DP FT DW SH approx 6.5 mi W of Clare 42.624 -94.465</desc>
</wpt>
<wpt lat="40.751" lon="-93.335">
  <name>CORY</name>
  <desc>CORY/Corydon Lake Co Park  CP    SITES:20  AMEN:WE ND FT DW SH approx 1.0 mi SW of Corydon 40.751 -93.335</desc>
</wpt>
<wpt lat="41.723" lon="-91.53">
  <name>COTT</name>
  <desc>COTT/Cottonwood - Coralville Lake  COE PH:515.276.4656 mid apr-mid oct    AMEN:NH DP SH RS PA approx 4.3 mi N of Iowa City 41.723 -91.53</desc>
</wpt>
<wpt lat="42.275" lon="-95.601">
  <name>CRAW</name>
  <desc>CRAW/Crawford Creek County Rec Area  CP   COMM:3 campgrounds SITES:24  AMEN:E DP DW SH approx 2.8 mi S  of Battle Creek 42.275 -95.601</desc>
</wpt>
<wpt lat="41.213" lon="-94.044">
  <name>CRIS</name>
  <desc>CRIS/Criss Cove County Park  CP    SITES:16  AMEN:WE ND VT NS L$ approx 8.3 mi S  of Winterset. 41.213 -94.044</desc>
</wpt>
<wpt lat="42.478" lon="-93.19">
  <name>CROS</name>
  <desc>CROS/Cross Ford River Access  CP   COMM:primitive   AMEN:NH ND NS approx 4.8 mi SE of Iowa Falls 42.478 -93.19</desc>
</wpt>
<wpt lat="43.23" lon="-93.783">
  <name>CRYS</name>
  <desc>CRYS/Crystal Lake Park  CP    SITES:95  AMEN:E DP FT DW SH NR L$ approx 0.7 mi NE of Crystal Lake 43.23 -93.783</desc>
</wpt>
<wpt lat="42.544" lon="-92.063">
  <name>CUTS</name>
  <desc>CUTS/Cutshall Area  CP   COMM:primitive   AMEN:NH VT approx 4.7 mi N of Jesup 42.544 -92.063</desc>
</wpt>
<wpt lat="43.465" lon="-93.573">
  <name>DAHL</name>
  <desc>DAHL/Dahle Park  CP PH:641.565.3390     AMEN:E PT DW L$ approx 3.7 mi NW of Lake Mills 43.465 -93.573</desc>
</wpt>
<wpt lat="42.249" lon="-93.043">
  <name>DAIS</name>
  <desc>DAIS/Daisy Long County Park  CP PH:641.648.4361   SITES:45  AMEN:E DP DW SH approx 1.1 mi E of Union 42.249 -93.043</desc>
</wpt>
<wpt lat="42.171" lon="-93.292">
  <name>DAKI</name>
  <desc>DAKI/Dakins Lake County Park  CP PH:641.487.7477   SITES:10  AMEN:E approx 0.8 mi N of Zearing 42.171 -93.292</desc>
</wpt>
<wpt lat="41.629" lon="-94.019">
  <name>DALL</name>
  <desc>DALL/Dallas County Fairgrounds  CP PH:515.993.4984     AMEN:WE DP DW SH L$ approx 1.0 mi N  of Adel 41.629 -94.019</desc>
</wpt>
<wpt lat="42.28" lon="-93.068">
  <name>DAVI</name>
  <desc>DAVI/David Bates Memorial Park  CP      AMEN:NH ND VT DW NS L$ approx 2.4 mi N  of Union 42.28 -93.068</desc>
</wpt>
<wpt lat="42.009" lon="-96.189">
  <name>DECA</name>
  <desc>DECA/Decatur Bend Access  CP  all year COMM:primitive SITES:6  AMEN:E PT L$ approx 4.9 mi W of Onawa 42.009 -96.189</desc>
</wpt>
<wpt lat="41.96" lon="-90.47">
  <name>DEEP</name>
  <desc>DEEP/Deep Creek  CP PH:563.677.2710   SITES:11  AMEN:E DP FT NS approx 0.2 mi W of Charlotte 41.96 -90.47</desc>
</wpt>
<wpt lat="42.643" lon="-96.325">
  <name>DEER</name>
  <desc>DEER/Deer Ridge - Hillview County Rec Area  CP    SITES:27  AMEN:WE FT DW SH approx  mi  of Hinton 42.643 -96.325</desc>
</wpt>
<wpt lat="42.462" lon="-92.303">
  <name>DEER</name>
  <desc>DEER/Deerwood City Park  CP PH:319.493.0655     AMEN:WES DP DW SH L$ approx 2.9 mi SE of Waterloo 42.462 -92.303</desc>
</wpt>
<wpt lat="41.826" lon="-95.338">
  <name>DEFI</name>
  <desc>DEFI/Defiance RV Park  CP PH:712 748.3431     AMEN:WE DP DW SH RS L$ approx 0.1 mi N of Defiance 41.826 -95.338</desc>
</wpt>
<wpt lat="42.95" lon="-94.233">
  <name>DEVI</name>
  <desc>DEVI/Devine Wildlife Area  CP PH:515.295.2138     AMEN:NH ND NS approx 8.3 mi S  of Algona 42.95 -94.233</desc>
</wpt>
<wpt lat="41.593" lon="-92.542">
  <name>DIAM</name>
  <desc>DIAM/Diamond Lake County Park  CP PH:641.623.3630   SITES:100  AMEN:E DP DW SH L$ approx 0.9 mi NW of Montezuma 41.593 -92.542</desc>
</wpt>
<wpt lat="42.118" lon="-94.687">
  <name>DICK</name>
  <desc>DICK/Dickson Timber County Park  CP      AMEN:E approx 4.8 mi NE of Glidden 42.118 -94.687</desc>
</wpt>
<wpt lat="42.935" lon="-95.474">
  <name>DOG</name>
  <desc>DOG/Dog Creek Co Park  CP PH:712.295.7200     AMEN:NH FT L$ approx 2.9 mi SE of Sutherland 42.935 -95.474</desc>
</wpt>
<wpt lat="42.387" lon="-94.083">
  <name>DOLL</name>
  <desc>DOLL/Dolliver Memorial State Park  SP PH:515.359.2539 all year  SITES:30  AMEN:E DP DW SH RS L$ approx 4.3 mi SE of Otho 42.387 -94.083</desc>
</wpt>
<wpt lat="42.12" lon="-94.027">
  <name>DONW</name>
  <desc>DONW/Don Williams Park  CP PH:515.275.9906     AMEN:E DP DW SH L$ approx 5.6 mi N of Ogden 42.12 -94.027</desc>
</wpt>
<wpt lat="43.163" lon="-95.705">
  <name>DOUM</name>
  <desc>DOUM/Douma Co Park  CP PH:712.295.7200     AMEN:NH FT L$ approx 2.8 mi SW of Sanborn 43.163 -95.705</desc>
</wpt>
<wpt lat="42.741" lon="-92.046">
  <name>DOWN</name>
  <desc>DOWN/Downing County Park  CP PH:563.425.3613     AMEN:E FT NS approx 3.2 mi SW of Westgate 42.741 -92.046</desc>
</wpt>
<wpt lat="42.654" lon="-93.508">
  <name>DOWS</name>
  <desc>DOWS/Dows Pool Park  CP      AMEN:E DW SH approx 0.4 mi SW of Dows 42.654 -93.508</desc>
</wpt>
<wpt lat="40.802" lon="-92.479">
  <name>DRAK</name>
  <desc>DRAK/Drakesville City Park  CP PH:641.722.3859   SITES:6  AMEN:E ND NS approx 4.8 mi NW of Bloomfield 40.802 -92.479</desc>
</wpt>
<wpt lat="42.523" lon="-90.641">
  <name>DUBU</name>
  <desc>DUBU/Dubuque Yacht Basin and RV Park  CP PH:563.556.7708  COMM:walk to sites only SITES:56  AMEN:WE approx 1.9 mi NE of Dubuque 42.523 -90.641</desc>
</wpt>
<wpt lat="42.996" lon="-91.771">
  <name>DUTT</name>
  <desc>DUTT/Duttons Cave Co Park  CP    SITES:5  AMEN:E PT DW approx 3.0 mi NE of West Union 42.996 -91.771</desc>
</wpt>
<wpt lat="42.472" lon="-93.146">
  <name>EAGL</name>
  <desc>EAGL/Eagle City County Park  CP      AMEN:NH ND NS approx 6.9 mi SE of Iowa Falls 42.472 -93.146</desc>
</wpt>
<wpt lat="41.033" lon="-93.744">
  <name>EASL</name>
  <desc>EASL/East Lake Co Park  CP PH:641.342.3960     AMEN:ND NS approx 1.2 mi E of Osceola 41.033 -93.744</desc>
</wpt>
<wpt lat="43.134" lon="-95.138">
  <name>EAST</name>
  <desc>EAST/East Leach City Park  CP PH:712.264.7265   SITES:200  AMEN:E DP DW SH L$ approx 0.9 mi S  of Spencer 43.134 -95.138</desc>
</wpt>
<wpt lat="42.047" lon="-90.855">
  <name>EDEN</name>
  <desc>EDEN/Eden Valley Park  CP PH:563.847.7202     AMEN:E DP DW SH approx 2.0 mi S  of Baldwin 42.047 -90.855</desc>
</wpt>
<wpt lat="41.68" lon="-91.551">
  <name>EDGE</name>
  <desc>EDGE/Edgewater City Park  CP PH:319.466.7605    approx 1.7 mi NW of Iowa City 41.68 -91.551</desc>
</wpt>
<wpt lat="42.645" lon="-91.399">
  <name>EDGW</name>
  <desc>EDGW/Edgewood Campground  CP PH:563.928.6613     AMEN:E NS approx 0.1 mi E of Edgewood 42.645 -91.399</desc>
</wpt>
<wpt lat="42.739" lon="-94.669">
  <name>ELBE</name>
  <desc>ELBE/Elbert Park  CP PH:712.335.4841     AMEN:WES DP NS approx 0.2 mi N of Pocahontas 42.739 -94.669</desc>
</wpt>
<wpt lat="42.941" lon="-93.56">
  <name>ELDR</name>
  <desc>ELDR/Eldred Sherwood Park  CP PH:641.923.2720     AMEN:E DP DW SH approx 3.1 mi NE of Goodell 42.941 -93.56</desc>
</wpt>
<wpt lat="41.399" lon="-93.086">
  <name>ELKR</name>
  <desc>ELKR/Elk Rock State Park  SP PH:641.842.6008 all year  SITES:75  AMEN:E DP DW SH RS L$ approx 26.2 mi E of Sweetwater 41.399 -93.086</desc>
</wpt>
<wpt lat="42.852" lon="-91.398">
  <name>ELKA</name>
  <desc>ELKA/Elkader City Park  CP PH:563.245.2098   SITES:125  AMEN:WE DP DW SH approx 0.4 mi E of Elkader 42.852 -91.398</desc>
</wpt>
<wpt lat="41.57" lon="-95.09">
  <name>ELKH</name>
  <desc>ELKH/Elkhorn Creek Rec Area  CP    SITES:7  AMEN:E ND NS L$ approx 2.2 mi SW of Elk Horn 41.57 -95.09</desc>
</wpt>
<wpt lat="43.355" lon="-95.175">
  <name>EMER</name>
  <desc>EMER/Emerson Bay State Rec Area  SRA PH:712.337.3211 all year  SITES:115  AMEN:E DP DW SH RS L$ approx 2.4 mi NW of Milford 43.355 -95.175</desc>
</wpt>
<wpt lat="41.235" lon="-92.734">
  <name>EVEL</name>
  <desc>EVEL/Eveland Access  CP PH:641.673.9327   SITES:26  AMEN:E DW approx 4.0 mi SW of Beacon 41.235 -92.734</desc>
</wpt>
<wpt lat="41.733" lon="-91.725">
  <name>FWKE</name>
  <desc>FWKE/F. W. Kent County Park  CP PH:319.645.2315   SITES:85  AMEN:WE DP DW SH approx 3.6 mi NW of Tiffin 41.733 -91.725</desc>
</wpt>
<wpt lat="41.433" lon="-90.924">
  <name>FAIR</name>
  <desc>FAIR/Fairport State Rec Area  SRA PH:563.263.4337 all year  SITES:40  AMEN:E DP DW SH RS L$ approx 6.2 mi E of Muscatine 41.433 -90.924</desc>
</wpt>
<wpt lat="42.495" lon="-94.628">
  <name>FEAT</name>
  <desc>FEAT/Featherstone County Park  CP PH:712.297.7131   SITES:61  AMEN:WE DP DW SH approx 6.9 mi N of Rockwell City 42.495 -94.628</desc>
</wpt>
<wpt lat="41.162" lon="-91.008">
  <name>FERR</name>
  <desc>FERR/Ferry Landing  COE PH:563.263.7913   SITES:50  AMEN:NH DP NS NR approx 18.3 mi S  of Muscatine 41.162 -91.008</desc>
</wpt>
<wpt lat="40.737" lon="-94.24">
  <name>FIFE</name>
  <desc>FIFE/Fifes Grove Co Park  CP PH:641.464.2787   SITES:10  AMEN:E ND FT NS approx 1.6 mi N  of Mount Ayr 40.737 -94.24</desc>
</wpt>
<wpt lat="42.324" lon="-90.908">
  <name>FILL</name>
  <desc>FILL/Fillmore County Rec Area  CP PH:563.556.6745     AMEN:E L$ approx 0.6 mi NE of Fillmore 42.324 -90.908</desc>
</wpt>
<wpt lat="42.654" lon="-90.806">
  <name>FINL</name>
  <desc>FINL/Finleys Landing City Park  CP PH:563.552.1571   SITES:30  AMEN:E DW SH approx 12.8 mi NW of Dubuque 42.654 -90.806</desc>
</wpt>
<wpt lat="41.27" lon="-91.118">
  <name>FLAM</name>
  <desc>FLAM/Flaming Prairie Park  CP PH:319.523.8381   SITES:24  AMEN:E approx 3.7 mi E of Grandview 41.27 -91.118</desc>
</wpt>
<wpt lat="42.604" lon="-91.908">
  <name>FONT</name>
  <desc>FONT/Fontana County Park  CP PH:319.636.2617   SITES:55  AMEN:E DP DW SH L$ approx 9.4 mi N  of Independence 42.604 -91.908</desc>
</wpt>
<wpt lat="42.158" lon="-93.046">
  <name>FORE</name>
  <desc>FORE/Forest Reserve - Marshalltown  CP PH:641.752.5490     AMEN:NH ND NS approx  mi  of Liscomb 42.158 -93.046</desc>
</wpt>
<wpt lat="42.614" lon="-91.311">
  <name>FOUN</name>
  <desc>FOUN/Fountain Springs County Park  CP PH:563.927.3410    approx 2.5 mi NE of Greeley 42.614 -91.311</desc>
</wpt>
<wpt lat="41.063" lon="-90.968">
  <name>FOUR</name>
  <desc>FOUR/Fourth Pumping Plant Rec Area  CP PH:319.753.8260  COMM:primitive SITES:22  AMEN:E DP approx 7.0 mi NE of Kingston 41.063 -90.968</desc>
</wpt>
<wpt lat="42.677" lon="-94.207">
  <name>FRAN</name>
  <desc>FRAN/Frank A Gotch Park  CP PH:515.332.4087     AMEN:E DP SH L$ approx 3.1 mi S  of Humboldt 42.677 -94.207</desc>
</wpt>
<wpt lat="42.852" lon="-91.106">
  <name>FREN</name>
  <desc>FREN/Frenchtown County Park  CP PH:563.245.1516     AMEN:NH approx 4.3 mi N  of Guttenberg 42.852 -91.106</desc>
</wpt>
<wpt lat="42.908" lon="-91.471">
  <name>FRIE</name>
  <desc>FRIE/Friedens County Park  CP PH:563.245.1516     AMEN:NH approx 5.0 mi NW of Elkader 42.908 -91.471</desc>
</wpt>
<wpt lat="41.268" lon="-95.917">
  <name>FRND</name>
  <desc>FRND/Friendship City Park  CP      AMEN:E DP approx 2.9 mi W of Council Bluffs 41.268 -95.917</desc>
</wpt>
<wpt lat="43.393" lon="-94.865">
  <name>FTDE</name>
  <desc>FTDE/Ft. Defiance State Park  SP PH:712.337.3211 all year  SITES:15  AMEN:E RS approx 1.5 mi SW of Estherville 43.393 -94.865</desc>
</wpt>
<wpt lat="42.506" lon="-95.414">
  <name>GALV</name>
  <desc>GALV/Galva City Park  CP PH:712.371.9438   SITES:6  AMEN:E ND FT NS approx 0.2 mi SE of Galva 42.506 -95.414</desc>
</wpt>
<wpt lat="42.886" lon="-93.222">
  <name>GALV</name>
  <desc>GALV/Galvin Memorial Park  CP PH:641.892.4718     AMEN:E DP DW SH approx 0.8 mi SW of Sheffield 42.886 -93.222</desc>
</wpt>
<wpt lat="42.938" lon="-92.85">
  <name>GATE</name>
  <desc>GATE/Gates Bridge County Park  CP PH:641.756.3490     AMEN:NH ND NS N$ approx 2.0 mi S  of Marble Rock 42.938 -92.85</desc>
</wpt>
<wpt lat="40.824" lon="-91.383">
  <name>GEOD</name>
  <desc>GEOD/Geode State Park  SP PH:319.392.4601 all year  SITES:170  AMEN:E DP DW SH RS L$ approx 4.5 mi SW of Danville 40.824 -91.383</desc>
</wpt>
<wpt lat="43.054" lon="-92.946">
  <name>GEOW</name>
  <desc>GEOW/George Wyatt City Park  CP PH:641.756.3718   SITES:36  AMEN:E DW SH approx 0.2 mi NE of Rockford 43.054 -92.946</desc>
</wpt>
<wpt lat="42.536" lon="-92.396">
  <name>GEOR</name>
  <desc>GEOR/George Wyth State Park  SP PH:319.232.5505 all year  SITES:70  AMEN:E DP DW SH RS L$ approx 2.5 mi E of Cedar Falls 42.536 -92.396</desc>
</wpt>
<wpt lat="42.959" lon="-91.632">
  <name>GILB</name>
  <desc>GILB/Gilbertson Conservation Education Area  CP PH:563.426.5740   SITES:28  AMEN:E DP DW SH approx 0.1 mi NW of Elgin 42.959 -91.632</desc>
</wpt>
<wpt lat="41.343" lon="-92.592">
  <name>GLEN</name>
  <desc>GLEN/Glendale Access  CP   COMM:unknown facilities   AMEN:NH approx  mi  of Oskaloosa 41.343 -92.592</desc>
</wpt>
<wpt lat="41.048" lon="-95.734">
  <name>GLEN</name>
  <desc>GLEN/Glenwood Lake Park  CP PH:712.527.3509     AMEN:E approx 0.5 mi E of Glenwood 41.048 -95.734</desc>
</wpt>
<wpt lat="43.041" lon="-91.837">
  <name>GOEK</name>
  <desc>GOEK/Goeken Co Park  CP   COMM:only 1 electric site   AMEN:E VT approx 5.6 mi N  of West Union 43.041 -91.837</desc>
</wpt>
<wpt lat="42.551" lon="-94.689">
  <name>GORD</name>
  <desc>GORD/Gordon Prange City Park  CP PH:712.468.2411     AMEN:WES L$ approx 0.3 mi W of Pomeroy 42.551 -94.689</desc>
</wpt>
<wpt lat="43.009" lon="-91.957">
  <name>GOUL</name>
  <desc>GOUL/Gouldsburg County Park  CP PH:563.425.3613   SITES:26  AMEN:E DP DW SH approx 4.9 mi N  of Hawkeye 43.009 -91.957</desc>
</wpt>
<wpt lat="42.168" lon="-93.033">
  <name>GRAM</name>
  <desc>GRAM/Grammer Grove Wildlife Area  CP   COMM:tent only   AMEN:NH ND FT DW NS approx 1.9 mi SW of Liscomb 42.168 -93.033</desc>
</wpt>
<wpt lat="42.264" lon="-94.893">
  <name>GRAN</name>
  <desc>GRAN/Grant County Park  CP PH:712.662.4530  COMM:primitive   AMEN:WES DP approx 1.2 mi NW of Auburn 42.264 -94.893</desc>
</wpt>
<wpt lat="40.79" lon="-91.362">
  <name>GRAY</name>
  <desc>GRAY/Grays Landing  CP PH:319.376.2341     AMEN:NH L$ approx 3.6 mi N  of Denmark 40.79 -91.362</desc>
</wpt>
<wpt lat="41.9" lon="-95.081">
  <name>GREA</name>
  <desc>GREA/Great Western Co Park  CP PH:712.792.4614   SITES:8  AMEN:WE DP L$ approx 1.0 mi SW of Manning 41.9 -95.081</desc>
</wpt>
<wpt lat="41.115" lon="-94.383">
  <name>GREE</name>
  <desc>GREE/Green Valley State Park  SP PH:641.782.5131 all year  SITES:145  AMEN:E DP DW SH RS L$ approx 4.0 mi N  of Creston 41.115 -94.383</desc>
</wpt>
<wpt lat="42.893" lon="-92.802">
  <name>GREE</name>
  <desc>GREE/Greene Rec Area - Camp Comfort  CP PH:319.278.4237   SITES:30  AMEN:E DP NS approx 0.2 mi S  of Greene 42.893 -92.802</desc>
</wpt>
<wpt lat="43.371" lon="-95.165">
  <name>GULL</name>
  <desc>GULL/Gull Point State Park  SP PH:712.337.3211 all year  SITES:110  AMEN:E DP DW SH RS L$ approx 3.3 mi N  of Milford 43.371 -95.165</desc>
</wpt>
<wpt lat="40.984" lon="-94.967">
  <name>HACK</name>
  <desc>HACK/Hacklebarney Woods County Park  CP    SITES:14  AMEN:E VT NS NR approx 3.8 mi N of Villisca 40.984 -94.967</desc>
</wpt>
<wpt lat="42.385" lon="-94.998">
  <name>HAGG</name>
  <desc>HAGG/Hagge County Park  CP PH:712.662.4530   SITES:15  AMEN:WES DP DW SH L$ approx 2.6 mi S  of Sac City 42.385 -94.998</desc>
</wpt>
<wpt lat="43.354" lon="-92.923">
  <name>HALV</name>
  <desc>HALV/Halvorson Park  CP PH:641.736.2221     AMEN:E DP DW SH approx 1.7 mi S  of St. Ansgar 43.354 -92.923</desc>
</wpt>
<wpt lat="41.863" lon="-92.112">
  <name>HANN</name>
  <desc>HANN/Hannen County Park  CP PH:319.454.6382   SITES:90  AMEN:E DW SH approx 3.5 mi SW of Blairstown 41.863 -92.112</desc>
</wpt>
<wpt lat="43.119" lon="-92.411">
  <name>HAUS</name>
  <desc>HAUS/Haus Park  CP   COMM:tents only   AMEN:NH ND NS approx 0.3 mi E of North Washingt 43.119 -92.411</desc>
</wpt>
<wpt lat="43.003" lon="-96.488">
  <name>HAWA</name>
  <desc>HAWA/Hawarden City Park  CP    SITES:15  AMEN:WES DP L$ approx 0.4 mi N of Hawarden 43.003 -96.488</desc>
</wpt>
<wpt lat="41.988" lon="-94.37">
  <name>HEND</name>
  <desc>HEND/Henderson Co Park  CP  all year  SITES:4  AMEN:E approx 2.1 mi S  of Jefferson 41.988 -94.37</desc>
</wpt>
<wpt lat="41.99" lon="-93.353">
  <name>HICK</name>
  <desc>HICK/Hickory Grove County Park  CP PH:515.232.2516   SITES:54  AMEN:E SH approx 5.6 mi SE of Nevada 41.99 -93.353</desc>
</wpt>
<wpt lat="42.27" lon="-92.311">
  <name>HICL</name>
  <desc>HICL/Hickory Hills Park -  La Porte City  CP PH:319.342.3350   SITES:80  AMEN:WES DP DW SH L$ approx 6.9 mi SW of La Porte City 42.27 -92.311</desc>
</wpt>
<wpt lat="41.18" lon="-93.609">
  <name>HICN</name>
  <desc>HICN/Hickory Hills Park - New Virginia  CP PH:515.961.6169     AMEN:NH ND NS approx 6.2 mi E of New Virgiinia 41.18 -93.609</desc>
</wpt>
<wpt lat="41.555" lon="-91.521">
  <name>HILL</name>
  <desc>HILL/Hills Access  CP PH:319.645.2315   SITES:13  AMEN:E approx 0.7 mi E of Hills 41.555 -91.521</desc>
</wpt>
<wpt lat="43.191" lon="-95.853">
  <name>HILP</name>
  <desc>HILP/Hills Park - Sheldon  CP PH:712.324.2769   SITES:23  AMEN:WE DP L$ approx 0.7 mi N of Sheldon 43.191 -95.853</desc>
</wpt>
<wpt lat="42.637" lon="-96.319">
  <name>HILV</name>
  <desc>HILV/Hillview County Rec Area  CP   COMM:2 campgrounds  approx 1.5 mi NW of Hinton 42.637 -96.319</desc>
</wpt>
<wpt lat="41.413" lon="-95.857">
  <name>HITC</name>
  <desc>HITC/Hitchcock County Nature Center  CP PH:712.328.5833   SITES:19  AMEN:E DP DW SH L$ approx 1.3 mi S  of Honey Creek 41.413 -95.857</desc>
</wpt>
<wpt lat="42.164" lon="-91.976">
  <name>HOEF</name>
  <desc>HOEF/Hoefle - Dulin Area County Park  CP    SITES:16  AMEN:E PT approx 2.2 mi E of Vinton 42.164 -91.976</desc>
</wpt>
<wpt lat="42.614" lon="-91.311">
  <name>HOLB</name>
  <desc>HOLB/Holbert Park  CP     approx 2.5 mi NE of Greeley 42.614 -91.311</desc>
</wpt>
<wpt lat="40.861" lon="-92.928">
  <name>HONE</name>
  <desc>HONE/Honey Creek State Park  SP PH:641.724.3739 all year  SITES:150  AMEN:RS approx 6.1 mi W of Moravia 40.861 -92.928</desc>
</wpt>
<wpt lat="40.943" lon="-93.997">
  <name>HOPE</name>
  <desc>HOPE/Hopeville Square Co Park  CP PH:641.342.3960   SITES:4  AMEN:E FT NS approx 0.0 mi N of Hopeville 40.943 -93.997</desc>
</wpt>
<wpt lat="42.055" lon="-90.664">
  <name>HORS</name>
  <desc>HORS/Horseshoe Pond  CP PH:563.652.2484   SITES:20  AMEN:E DP FT DW SH approx 1.0 mi S  of Maquoketa 42.055 -90.664</desc>
</wpt>
<wpt lat="42.985" lon="-92.559">
  <name>HOWA</name>
  <desc>HOWA/Howards Woods  CP      AMEN:NH approx 2.5 mi NW of Nashua 42.985 -92.559</desc>
</wpt>
<wpt lat="41.365" lon="-92.973">
  <name>HOWE</name>
  <desc>HOWE/Howell Station - Red Rock Lake  COE PH:641.828.7522 mid apr-late oct  SITES:140  AMEN:E DP DW SH RS approx 4.2 mi SW of Pella 41.365 -92.973</desc>
</wpt>
<wpt lat="40.391" lon="-91.38">
  <name>HUBI</name>
  <desc>HUBI/Hubinger Landing Park  CP PH:319.524.7122   SITES:18  AMEN:WE DP NS approx 1.3 mi SE of Keokuk 40.391 -91.38</desc>
</wpt>
<wpt lat="41.925" lon="-96.134">
  <name>HUFF</name>
  <desc>HUFF/Huff - Warner Access Area  CP    SITES:25  AMEN:E DP VT DW L$ approx 2.7 mi W of Blencoe 41.925 -96.134</desc>
</wpt>
<wpt lat="42.113" lon="-94.575">
  <name>HYDE</name>
  <desc>HYDE/Hyde Park  CP    SITES:28  AMEN:E FT DW approx 6.4 mi N  of Scranton 42.113 -94.575</desc>
</wpt>
<wpt lat="42.348" lon="-95.467">
  <name>IDA</name>
  <desc>IDA/Ida Grove City Park  CP PH:712.364.2428     AMEN:E DP FT DW NS RS L$ approx 0.3 mi NE of Ida Grove 42.348 -95.467</desc>
</wpt>
<wpt lat="42.461" lon="-91.891">
  <name>INDE</name>
  <desc>INDE/Independence City RV Park  CP PH:319.334.6711     AMEN:E DP DW SH approx 0.5 mi S  of Independence 42.461 -91.891</desc>
</wpt>
<wpt lat="40.633" lon="-91.752">
  <name>INDI</name>
  <desc>INDI/Indian Lake Park  CP PH:319.878.3706     AMEN:E DP DW SH approx 0.7 mi SW of Farmington 40.633 -91.752</desc>
</wpt>
<wpt lat="40.724" lon="-91.236">
  <name>INDP</name>
  <desc>INDP/Indian Path Park  CP PH:319.463.7673   SITES:12  AMEN:E approx 0.9 mi N  of Wever 40.724 -91.236</desc>
</wpt>
<wpt lat="42.943" lon="-93.377">
  <name>INGE</name>
  <desc>INGE/Ingebretson County Park  CP PH:641.423.5309   SITES:23  AMEN:E DW SH L$ approx 0.4 mi E of Thornton 42.943 -93.377</desc>
</wpt>
<wpt lat="43.319" lon="-92.881">
  <name>INTE</name>
  <desc>INTE/Interstate Co Park  CP PH:641.732.5204     AMEN:WE DP FT DW SH L$ approx 0.8 mi W of Mitchell 43.319 -92.881</desc>
</wpt>
<wpt lat="43.491" lon="-94.459">
  <name>IOWA</name>
  <desc>IOWA/Iowa Lake Co Campground  CP PH:712.867.4422     AMEN:NH ND VT DW NS approx 6.6 mi N of Armstrong 43.491 -94.459</desc>
</wpt>
<wpt lat="43.5" lon="-95.455">
  <name>IOWA</name>
  <desc>IOWA/Iowa Lake Co Park  CP PH:319.655.8466   SITES:120 EL:1505 AMEN:E DP SH NR approx 4.0 mi N  of Harris 43.5 -95.455</desc>
</wpt>
<wpt lat="42.846" lon="-93.617">
  <name>IOWA</name>
  <desc>IOWA/Iowa River RV Park  CP PH:641.444.3386   SITES:16  AMEN:WES DP DW SH approx 0.1 mi W of Belmond 42.846 -93.617</desc>
</wpt>
<wpt lat="41.599" lon="-93.551">
  <name>IOWS</name>
  <desc>IOWS/Iowa State Fairgrounds  CP PH:515.262.3111     AMEN:WES DP approx 3.0 mi E of Des Moines 41.599 -93.551</desc>
</wpt>
<wpt lat="43.436" lon="-96.171">
  <name>ISLP</name>
  <desc>ISLP/Island Park - Rock Rapids  CP    SITES:22  AMEN:E DP approx  mi  of Rock Rapids 43.436 -96.171</desc>
</wpt>
<wpt lat="41.621" lon="-94.014">
  <name>ISLA</name>
  <desc>ISLA/Island Park Co Park  CP PH:515.993.4525     AMEN:NH FT DW SH approx 0.5 mi NE of Adel 41.621 -94.014</desc>
</wpt>
<wpt lat="40.827" lon="-92.906">
  <name>ISLA</name>
  <desc>ISLA/Island View - Rathbun Lake  COE PH:641.647.2079 early may-late sep  SITES:200  AMEN:E DP DW SH RS PA approx 7.0 mi N  of Centerville 40.827 -92.906</desc>
</wpt>
<wpt lat="41.368" lon="-92.981">
  <name>IVAN</name>
  <desc>IVAN/Ivans - Red Rock Lake  COE      AMEN:E DW SH NR approx 4.3 mi SW of Pella 41.368 -92.981</desc>
</wpt>
<wpt lat="42.599" lon="-91.741">
  <name>JACK</name>
  <desc>JACK/Jakway County Park  CP      AMEN:E DW SH approx 1.5 mi SW of Aurora 42.599 -91.741</desc>
</wpt>
<wpt lat="40.993" lon="-91.988">
  <name>JEFF</name>
  <desc>JEFF/Jefferson County Park  CP PH:641.472.4421     AMEN:E FT DW SH approx 1.5 mi SW of Fairfield 40.993 -91.988</desc>
</wpt>
<wpt lat="41.78" lon="-93.775">
  <name>JEST</name>
  <desc>JEST/Jester County Park  CP PH:515.323.5366   SITES:252  AMEN:E DP DW SH approx 2.8 mi NE of Granger 41.78 -93.775</desc>
</wpt>
<wpt lat="42.731" lon="-94.261">
  <name>JOES</name>
  <desc>JOES/Joe Sheldon County Park  CP PH:515.332.4087     AMEN:E DW SH approx 2.4 mi W of Humboldt 42.731 -94.261</desc>
</wpt>
<wpt lat="42.079" lon="-90.751">
  <name>JOIN</name>
  <desc>JOIN/Joinerville County Park  CP PH:563.652.3783.     AMEN:NH NS N$ approx 4.5 mi W of Maquoketa 42.079 -90.751</desc>
</wpt>
<wpt lat="42.677" lon="-91.597">
  <name>JOYS</name>
  <desc>JOYS/Joy Springs County Park  CP      AMEN:NH approx 3.2 mi W of Strawberry Poi 42.677 -91.597</desc>
</wpt>
<wpt lat="43.122" lon="-94.68">
  <name>KEAR</name>
  <desc>KEAR/Kearny Park  CP PH:712.852.4030     AMEN:E DW SH NR approx 0.6 mi N of Emmetsburg 43.122 -94.68</desc>
</wpt>
<wpt lat="42.583" lon="-94.192">
  <name>KENN</name>
  <desc>KENN/Kennedy County Park  CP PH:515.576.4258   SITES:100  AMEN:E DP DW SH L$ approx 6.1 mi N  of Fort Dodge 42.583 -94.192</desc>
</wpt>
<wpt lat="42.844" lon="-91.816">
  <name>KLOC</name>
  <desc>KLOC/Klocks Island Park  CP PH:563.425.4316   SITES:25  AMEN:E DP FT DW SH approx 0.7 mi W of Fayette 42.844 -91.816</desc>
</wpt>
<wpt lat="40.792" lon="-94.339">
  <name>KOKE</name>
  <desc>KOKE/Kokesh Co Park  CP      AMEN:NH ND NS approx 1.2 mi S  of Diagonal 40.792 -94.339</desc>
</wpt>
<wpt lat="42.704" lon="-95.554">
  <name>KOSE</name>
  <desc>KOSE/Koser Spring Lake Park  CP PH:712.225.2715   SITES:40  AMEN:WES DP DW SH L$ approx 3.1 mi S  of Cherokee 42.704 -95.554</desc>
</wpt>
<wpt lat="40.709" lon="-91.981">
  <name>LACE</name>
  <desc>LACE/Lacey - Keosauqua State Park  SP PH:319.293.3502 all year  SITES:113  AMEN:E DP DW SH RS L$ approx 1.8 mi SW of Keosauqua 40.709 -91.981</desc>
</wpt>
<wpt lat="41.296" lon="-93.583">
  <name>LAKE</name>
  <desc>LAKE/Lake Ahquabi State Park  SP PH:515.961.7101 all year  SITES:141  AMEN:E DP 60ft DW SH RS L$ approx 4.5 mi S  of Indianola 41.296 -93.583</desc>
</wpt>
<wpt lat="41.433" lon="-94.762">
  <name>LAKA</name>
  <desc>LAKA/Lake Anita State Park  SP PH:712.762.3564 all year  SITES:162  AMEN:WES DP 60ft DW SH RS L$ approx 0.8 mi S  of Anita 41.433 -94.762</desc>
</wpt>
<wpt lat="41.003" lon="-94.711">
  <name>LAKE</name>
  <desc>LAKE/Lake Binder Co Park  CP PH:641.322.4230  COMM:primitive SITES:75  AMEN:NH approx 1.6 mi NE of Corning 41.003 -94.711</desc>
</wpt>
<wpt lat="42.716" lon="-92.917">
  <name>LAKE</name>
  <desc>LAKE/Lake Considine  CP   COMM:primitive   AMEN:NH ND NS approx 4.0 mi S  of Bristow 42.716 -92.917</desc>
</wpt>
<wpt lat="42.793" lon="-93.692">
  <name>LAKC</name>
  <desc>LAKC/Lake Cornelia Park  CP PH:515.532.3185   SITES:70  AMEN:E DW SH approx 4.7 mi NE of Clarion 42.793 -93.692</desc>
</wpt>
<wpt lat="41.192" lon="-91.896">
  <name>LAKD</name>
  <desc>LAKD/Lake Darling State Park  SP PH:319.694.2323 all year  SITES:118  AMEN:NH DP DW SH RS L$ approx 4.1 mi W of Brighton 41.192 -91.896</desc>
</wpt>
<wpt lat="40.759" lon="-92.446">
  <name>LAKE</name>
  <desc>LAKE/Lake Fisher  CP PH:641.664.2260  COMM:call before camping SITES:6  AMEN:WE approx 1.7 mi W of Bloomfield 40.759 -92.446</desc>
</wpt>
<wpt lat="43.373" lon="-92.55">
  <name>LAKE</name>
  <desc>LAKE/Lake Hendricks Co Park  CP PH:641.985.2127   SITES:80  AMEN:E DP FT DW SH approx 0.6 mi N of Riceville 43.373 -92.55</desc>
</wpt>
<wpt lat="41.056" lon="-94.735">
  <name>LAKE</name>
  <desc>LAKE/Lake Icaria Co Park  CP PH:641.322.4793  COMM:2 campgrounds SITES:100  AMEN:WES DP FT DW SH approx 4.8 mi N  of Corning 41.056 -94.735</desc>
</wpt>
<wpt lat="41.636" lon="-92.182">
  <name>LAKI</name>
  <desc>LAKI/Lake Iowa County Park  CP PH:319.655.8465   SITES:122  AMEN:E DP DW SH approx 8.2 mi S  of Ladora 41.636 -92.182</desc>
</wpt>
<wpt lat="41.29" lon="-92.541">
  <name>LAKK</name>
  <desc>LAKK/Lake Keomah State Park  SP PH:641.673.6975 all year  SITES:65  AMEN:E DP DW SH RS L$ approx 5.6 mi E of Oskaloosa 41.29 -92.541</desc>
</wpt>
<wpt lat="41.798" lon="-91.577">
  <name>LAKM</name>
  <desc>LAKM/Lake Macbride State Park  SP PH:319.624.2200 all year  SITES:60  AMEN:WES DP VT DW SH RS L$ approx 4.3 mi W of Solon 41.798 -91.577</desc>
</wpt>
<wpt lat="41.197" lon="-95.854">
  <name>LAKN</name>
  <desc>LAKN/Lake Manawa State Park  SP PH:712.366.0220 all year  SITES:72  AMEN:E DP DW SH RS L$ approx 4.5 mi S  of Council Bluffs 41.197 -95.854</desc>
</wpt>
<wpt lat="43.173" lon="-91.911">
  <name>LAME</name>
  <desc>LAME/Lake Meyer County Park  CP PH:563.534.7145     AMEN:E DP DW SH approx 2.5 mi W of Calmar 43.173 -91.911</desc>
</wpt>
<wpt lat="40.713" lon="-94.684">
  <name>LAKT</name>
  <desc>LAKT/Lake of Three Fires State Park  SP PH:712.523.2700 all year  SITES:140  AMEN:E DP DW SH RS L$ approx 3.7 mi NE of Bedford 40.713 -94.684</desc>
</wpt>
<wpt lat="41.2" lon="-94.437">
  <name>LAKE</name>
  <desc>LAKE/Lake Orient Rec Area  CP    SITES:22  AMEN:E approx 1.2 mi W of Orient 41.2 -94.437</desc>
</wpt>
<wpt lat="43.386" lon="-96.465">
  <name>LAKE</name>
  <desc>LAKE/Lake Pahoja Rec Area  CP      AMEN:E DP FT DW SH NR approx 5.7 mi N  of Inwood 43.386 -96.465</desc>
</wpt>
<wpt lat="40.683" lon="-91.994">
  <name>LASU</name>
  <desc>LASU/Lake Sugema County Park  CP PH:319.293.3532     AMEN:E DP DW SH  40.683 -91.994</desc>
</wpt>
<wpt lat="40.816" lon="-92.589">
  <name>LAKW</name>
  <desc>LAKW/Lake Wapello State Park  SP PH:641.722.3371 all year  SITES:80  AMEN:E DP DW SH RS L$ approx 5.7 mi W of Drakesville 40.816 -92.589</desc>
</wpt>
<wpt lat="40.877" lon="-93.504">
  <name>LAKE</name>
  <desc>LAKE/Lakeside Co Park  CP    SITES:29  AMEN:E DW SH approx 1.3 mi N  of Humeston 40.877 -93.504</desc>
</wpt>
<wpt lat="42.73" lon="-95.388">
  <name>LARS</name>
  <desc>LARS/Larson Lake Co Park  CP    SITES:5  AMEN:NH ND VT NS L$ approx 2.7 mi NE of Aurelia 42.73 -95.388</desc>
</wpt>
<wpt lat="41.983" lon="-93.887">
  <name>LEDG</name>
  <desc>LEDG/Ledges State Park  SP PH:515.432.1852 all year  SITES:95  AMEN:E DP DW SH RS L$ approx 5.3 mi S  of Boone 41.983 -93.887</desc>
</wpt>
<wpt lat="41.023" lon="-95.23">
  <name>LEGI</name>
  <desc>LEGI/Legion City Park  CP    SITES:10  AMEN:E approx 0.8 mi N  of Red Oak 41.023 -95.23</desc>
</wpt>
<wpt lat="40.715" lon="-92.886">
  <name>LELA</name>
  <desc>LELA/Lelah Bradley Park  CP PH:641.856.8528 early may-late oct  SITES:15  AMEN:E NS approx 1.2 mi SW of Centerville 40.715 -92.886</desc>
</wpt>
<wpt lat="41.687" lon="-94.57">
  <name>LENO</name>
  <desc>LENO/Lenon Mill Co Park  CP      AMEN:E FT DW NS approx 10.7 mi W of Panora 41.687 -94.57</desc>
</wpt>
<wpt lat="42.027" lon="-96.162">
  <name>LEWI</name>
  <desc>LEWI/Lewis and Clark State Park  SP PH:712.423.2829 all year  SITES:112  AMEN:WES DP 60ft DW SH RS L$ approx 3.3 mi W of Onawa 42.027 -96.162</desc>
</wpt>
<wpt lat="43.466" lon="-92.279">
  <name>LIDT</name>
  <desc>LIDT/Lidtke Park  CP    SITES:30  AMEN:E DW SH NR L$ approx 1.2 mi N of Lime Springs 43.466 -92.279</desc>
</wpt>
<wpt lat="43.184" lon="-93.194">
  <name>LIMC</name>
  <desc>LIMC/Lime Creek Conservation Area - Mason City  CP PH:641.423.5309     AMEN:E approx 2.1 mi N of Mason City 43.184 -93.194</desc>
</wpt>
<wpt lat="42.327" lon="-91.981">
  <name>LIMP</name>
  <desc>LIMP/Lime Creek Park - Brandon  CP PH:319.636.2617     AMEN:E approx 1.4 mi NE of Brandon 42.327 -91.981</desc>
</wpt>
<wpt lat="41.725" lon="-91.543">
  <name>LIND</name>
  <desc>LIND/Linder Point - Coralville Lake  COE PH:319.338.3543   SITES:30  AMEN:WE DP DW SH RS PA L$ approx 4.4 mi N  of Iowa City 41.725 -91.543</desc>
</wpt>
<wpt lat="42.979" lon="-93.196">
  <name>LINN</name>
  <desc>LINN/Linn Grove County Park  CP PH:641.423.5309   SITES:66  AMEN:E DP DW SH L$ approx 0.5 mi SW of Rockwell 42.979 -93.196</desc>
</wpt>
<wpt lat="42.895" lon="-95.246">
  <name>LINN</name>
  <desc>LINN/Linn Grove Dam Co Park  CP PH:712.295.7985     AMEN:NH ND NS approx 0.2 mi N of Linn Grove 42.895 -95.246</desc>
</wpt>
<wpt lat="40.768" lon="-93.778">
  <name>LITT</name>
  <desc>LITT/Little River Rec Area  CP PH:641.446.7307   SITES:30  AMEN:E FT DW SH RS approx 2.5 mi NW of Leon 40.768 -93.778</desc>
</wpt>
<wpt lat="42.45" lon="-95.801">
  <name>LITS</name>
  <desc>LITS/Little Sioux Park  CP PH:712.372.4984   SITES:95  AMEN:E DP DW SH approx 1.9 mi SW of Correctionvill 42.45 -95.801</desc>
</wpt>
<wpt lat="42.277" lon="-93.639">
  <name>LITW</name>
  <desc>LITW/Little Wall Lake County Park  CP PH:515.832.9570   SITES:104  AMEN:E DP DW SH L$ approx 2.1 mi S  of Jewell 42.277 -93.639</desc>
</wpt>
<wpt lat="41.556" lon="-94.785">
  <name>LITT</name>
  <desc>LITT/Littlefield Rec Area  CP    SITES:100  AMEN:WES DP FTVT DW SH NR approx 5.3 mi SE of Exira 41.556 -94.785</desc>
</wpt>
<wpt lat="43.176" lon="-94.891">
  <name>LOST</name>
  <desc>LOST/Lost Island Huston Park  CP PH:712.837.4866     AMEN:E DP DW SH L$ approx 3.3 mi N of Ruthven 43.176 -94.891</desc>
</wpt>
<wpt lat="42.867" lon="-94.202">
  <name>LOTT</name>
  <desc>LOTT/Lotts Creek Co Park  CP PH:515.332.4087     AMEN:E ND NS approx 10.0 mi N  of Dakota City 42.867 -94.202</desc>
</wpt>
<wpt lat="41.278" lon="-91.356">
  <name>LOUI</name>
  <desc>LOUI/Louisa County Fairgrounds  CP    SITES:10  AMEN:E DW SH approx 0.2 mi E of Columbus Junct 41.278 -91.356</desc>
</wpt>
<wpt lat="40.755" lon="-91.258">
  <name>LOWA</name>
  <desc>LOWA/Lower Augusta Skunk River Access  CP      AMEN:E DP approx 1.0 mi E of Augusta 40.755 -91.258</desc>
</wpt>
<wpt lat="41.318" lon="-95.386">
  <name>LYON</name>
  <desc>LYON/Lyons Park  CP      AMEN:DW approx 0.8 mi NE of Oakland 41.318 -95.386</desc>
</wpt>
<wpt lat="41.051" lon="-91.736">
  <name>MACC</name>
  <desc>MACC/Mac Coon Access  CP PH:641.472.4421     AMEN:E DP VT DW approx 3.9 mi N of Lockridge 41.051 -91.736</desc>
</wpt>
<wpt lat="42.663" lon="-93.232">
  <name>MALL</name>
  <desc>MALL/Mallory Co Park  CP PH:641.456.4375   SITES:25  AMEN:E NS approx 5.6 mi S  of Hampton 42.663 -93.232</desc>
</wpt>
<wpt lat="41.239" lon="-92.108">
  <name>MANH</name>
  <desc>MANH/Manhattan Bridge Access  CP   COMM:primitive   AMEN:NH ND VT NS approx 2.9 mi N  of Ollie 41.239 -92.108</desc>
</wpt>
<wpt lat="41.855" lon="-95.462">
  <name>MANT</name>
  <desc>MANT/Manteno Co Park  CP      AMEN:E DP FT DW SH L$ approx 6.7 mi W of Defiance 41.855 -95.462</desc>
</wpt>
<wpt lat="42.168" lon="-95.787">
  <name>MAPL</name>
  <desc>MAPL/Mapleton City  CP PH:712.881.1351   SITES:4  AMEN:E ND NS L$ approx 0.3 mi NE of Mapleton 42.168 -95.787</desc>
</wpt>
<wpt lat="42.119" lon="-90.775">
  <name>MAQU</name>
  <desc>MAQU/Maquoketa Caves State Park  SP PH:563.652.5833 all year    AMEN:E DP DW SH RS L$ approx 6.6 mi NW of Maquoketa 42.119 -90.775</desc>
</wpt>
<wpt lat="43.469" lon="-95.125">
  <name>MARB</name>
  <desc>MARB/Marble Beach State Rec Area  SRA PH:712.337.3211 all year  SITES:110  AMEN:E DP DW SH RS L$ approx 3.4 mi N  of Spirit Lake 43.469 -95.125</desc>
</wpt>
<wpt lat="43.158" lon="-93.183">
  <name>MARG</name>
  <desc>MARG/Margaret Macnider City Park  CP PH:641.421.3673   SITES:95  AMEN:WES DP DW SH approx 0.9 mi E of Mason City 43.158 -93.183</desc>
</wpt>
<wpt lat="41.316" lon="-93.119">
  <name>MARI</name>
  <desc>MARI/Marion County Park  CP PH:641.828.2213     AMEN:E DP DW SH approx 1.1 mi W of Knoxville 41.316 -93.119</desc>
</wpt>
<wpt lat="41.782" lon="-92.963">
  <name>MARI</name>
  <desc>MARI/Mariposa Co Park  CP PH:641.792.9780   SITES:15  AMEN:NH ND NS approx 7.3 mi NE of Newton 41.782 -92.963</desc>
</wpt>
<wpt lat="40.818" lon="-94.349">
  <name>MARL</name>
  <desc>MARL/Marlin Fogle Rec Area  CP PH:641.734.5491   SITES:42  AMEN:E DP FT DW SH approx 0.7 mi NW of Diagonal 40.818 -94.349</desc>
</wpt>
<wpt lat="41.287" lon="-91.579">
  <name>MARR</name>
  <desc>MARR/Marr Park  CP    SITES:26  AMEN:WES DP FT DW SH approx 1.4 mi W of Ainsworth 41.287 -91.579</desc>
</wpt>
<wpt lat="42.851" lon="-95.472">
  <name>MART</name>
  <desc>MART/Martin Area County Park  CP    SITES:40  AMEN:NH ND VT DW NS approx 3.8 mi E of Larrabee 42.851 -95.472</desc>
</wpt>
<wpt lat="42.43" lon="-90.587">
  <name>MASS</name>
  <desc>MASS/Massey Marina  CP PH:563.556.6745   SITES:40  AMEN:E DP DW SH approx 6.3 mi SE of Dubuque 42.43 -90.587</desc>
</wpt>
<wpt lat="42.132" lon="-91.382">
  <name>MATS</name>
  <desc>MATS/Matsell Bridge Natural Area  CP PH:319.892.6450   SITES:70  AMEN:NH approx 8.8 mi SE of Central City 42.132 -91.382</desc>
</wpt>
<wpt lat="42.778" lon="-91.878">
  <name>MAYN</name>
  <desc>MAYN/Maynard City Park  CP PH:563.637.2269     AMEN:E DP NS L$ approx 0.4 mi NE of Maynard 42.778 -91.878</desc>
</wpt>
<wpt lat="42.318" lon="-92.142">
  <name>MCFA</name>
  <desc>MCFA/McFarlane Park  CP PH:319.342.3844     AMEN:E DP DW SH approx 2.6 mi E of La Porte City 42.318 -92.142</desc>
</wpt>
<wpt lat="40.75" lon="-92.393">
  <name>MCGO</name>
  <desc>MCGO/McGowen Rec Area  CP PH:641.664.2527   SITES:12  AMEN:WE DP DW SH RS L$ approx 1.2 mi E of Bloomfield 40.75 -92.393</desc>
</wpt>
<wpt lat="43.127" lon="-93.452">
  <name>MCIN</name>
  <desc>MCIN/McIntosh Woods State Park  SP PH:641.829.3847 all year  SITES:50  AMEN:E DP DW SH RS L$ approx 1.3 mi E of Ventura 43.127 -93.452</desc>
</wpt>
<wpt lat="41.052" lon="-94.382">
  <name>MCKI</name>
  <desc>MCKI/McKinley Park  CP PH:641.782.2000     AMEN:E DP approx 1.2 mi SW of Creston 41.052 -94.382</desc>
</wpt>
<wpt lat="41.525" lon="-94.414">
  <name>MENL</name>
  <desc>MENL/Menlo City Park  CP PH:641.524.2411   SITES:7  AMEN:E approx 0.6 mi NW of Menlo 41.525 -94.414</desc>
</wpt>
<wpt lat="42.907" lon="-94.621">
  <name>MERE</name>
  <desc>MERE/Meredith Co Park  CP    SITES:17  AMEN:E DP FT DW SH approx 2.0 mi N of Plover 42.907 -94.621</desc>
</wpt>
<wpt lat="41.12" lon="-92.837">
  <name>MIAM</name>
  <desc>MIAM/Miami Lake Park  CP PH:641.946.8112     AMEN:E DW SH L$ approx 3.7 mi E of Lovilia 41.12 -92.837</desc>
</wpt>
<wpt lat="41.798" lon="-91.9">
  <name>MIDD</name>
  <desc>MIDD/Middle Amana Park  CP   COMM:grassy but can get muddy SITES:24  AMEN:E ND DW approx  mi  of Middle Amana 41.798 -91.9</desc>
</wpt>
<wpt lat="41.352" lon="-94.281">
  <name>MIDD</name>
  <desc>MIDD/Middle River Forest Area  CP   COMM:tent only - primitive - canoeing   AMEN:NH ND NS approx 11.8 mi S  of Dexter 41.352 -94.281</desc>
</wpt>
<wpt lat="40.952" lon="-91.547">
  <name>MIDW</name>
  <desc>MIDW/Midwest Old Threshers  CP PH:319.385.8937  COMM:RV parking   AMEN:E DP DW SH approx  mi  of Mount Pleasant 40.952 -91.547</desc>
</wpt>
<wpt lat="42.272" lon="-94.762">
  <name>MIKE</name>
  <desc>MIKE/Mike Macke Memorial Park  CP   COMM:on stream - nice place - fish - ask directions in town SITES:6  AMEN:WE L$ approx 1.5 mi W of Lake City 42.272 -94.762</desc>
</wpt>
<wpt lat="42.984" lon="-95.668">
  <name>MILL</name>
  <desc>MILL/Mill Creek Co Park  CP  early may-late sep COMM:swim SITES:48  AMEN:WE DP FT DW SH approx 1.1 mi E of Paulina 42.984 -95.668</desc>
</wpt>
<wpt lat="42.516" lon="-90.642">
  <name>MILL</name>
  <desc>MILL/Miller Riverview City Park  CP PH:563.589.4238     AMEN:E DP approx 1.5 mi NE of Dubuque 42.516 -90.642</desc>
</wpt>
<wpt lat="42.195" lon="-92.018">
  <name>MILR</name>
  <desc>MILR/Milroy Access  CP    SITES:95  AMEN:E approx 2.1 mi N of Vinton 42.195 -92.018</desc>
</wpt>
<wpt lat="42.259" lon="-92.019">
  <name>MINN</name>
  <desc>MINN/Minne Estema Park  CP PH:563.472.3318   SITES:30  AMEN:E approx 6.5 mi N  of Vinton 42.259 -92.019</desc>
</wpt>
<wpt lat="43.365" lon="-95.129">
  <name>MINN</name>
  <desc>MINN/Minnewashta Lake  CP PH:712.332.2341     AMEN:E DP DW SH  43.365 -95.129</desc>
</wpt>
<wpt lat="41.557" lon="-95.906">
  <name>MISS</name>
  <desc>MISS/Missouri Valley City Park  CP PH:712.642.3502   SITES:110  AMEN:E DP NS approx 0.9 mi W of Missouri Valle 41.557 -95.906</desc>
</wpt>
<wpt lat="40.602" lon="-93.513">
  <name>MOOR</name>
  <desc>MOOR/Moore - Gosch Memorial Park  CP  early apr-late oct  SITES:22  AMEN:WE NS approx 1.4 mi NE of Lineville 40.602 -93.513</desc>
</wpt>
<wpt lat="42.357" lon="-95.479">
  <name>MOOR</name>
  <desc>MOOR/Moorehead Pioneer County Park  CP PH:712.364.3300     AMEN:NH ND NS approx 0.8 mi NW of Ida Grove 42.357 -95.479</desc>
</wpt>
<wpt lat="41.989" lon="-91.76">
  <name>MORG</name>
  <desc>MORG/Morgan Creek County Park  CP PH:319.396.2363   SITES:36  AMEN:WE DP SH approx 5.6 mi S  of Palo 41.989 -91.76</desc>
</wpt>
<wpt lat="41.24" lon="-94.637">
  <name>MORM</name>
  <desc>MORM/Mormon Trail County Park  CP PH:641.743.6450  COMM:swim SITES:20  AMEN:E PT NS approx 1.7 mi E of Bridgewater 41.24 -94.637</desc>
</wpt>
<wpt lat="40.888" lon="-91.8">
  <name>MORR</name>
  <desc>MORR/Morris County Park  CP PH:319.796.2148   SITES:15  AMEN:WE approx 2.8 mi NE of Stockport 40.888 -91.8</desc>
</wpt>
<wpt lat="42.807" lon="-91.351">
  <name>MOTO</name>
  <desc>MOTO/Motor Mill Historic Site  CP PH:563.245.1516   SITES:8  AMEN:NH ND NS L$ approx 0.0 mi SE of Motor 42.807 -91.351</desc>
</wpt>
<wpt lat="42.616" lon="-90.706">
  <name>MUDL</name>
  <desc>MUDL/Mud Lake County Park  CP PH:563.552.2746   SITES:75  AMEN:E DW SH approx 8.3 mi N  of Dubuque 42.616 -90.706</desc>
</wpt>
<wpt lat="41.577" lon="-94.331">
  <name>NATI</name>
  <desc>NATI/Nations Bridge Co Park  CP PH:515.523.1789  COMM:swimming hole   AMEN:E DP FT DW SH approx 5.1 mi N  of Stuart 41.577 -94.331</desc>
</wpt>
<wpt lat="41.936" lon="-95.587">
  <name>NELS</name>
  <desc>NELS/Nelson Park  CP PH:712.263.2748     AMEN:E DP DW SH approx 4.8 mi W of Dow City 41.936 -95.587</desc>
</wpt>
<wpt lat="43.058" lon="-92.303">
  <name>NEWH</name>
  <desc>NEWH/New Hampton City  CP PH:641.394.2758   SITES:25  AMEN:WES DP FT DW SH NR L$ approx 0.8 mi E of New Hampton 43.058 -92.303</desc>
</wpt>
<wpt lat="42.536" lon="-91.124">
  <name>NEWW</name>
  <desc>NEWW/New Wine County Park  CP PH:563.921.3475   SITES:55  AMEN:E DP DW SH approx 3.6 mi N  of Dyersville 42.536 -91.124</desc>
</wpt>
<wpt lat="40.588" lon="-93.754">
  <name>NINE</name>
  <desc>NINE/Nine Eagles State Park  SP PH:641.442.2855 all year  SITES:70  AMEN:E DP 60ft DW SH RS L$ approx 4.6 mi SE of Davis City 40.588 -93.754</desc>
</wpt>
<wpt lat="41.568" lon="-95.323">
  <name>NISH</name>
  <desc>NISH/Nishna Bend Rec Area  CP    SITES:14  AMEN:E FT DW SH L$ approx 5.9 mi S  of Harlan 41.568 -95.323</desc>
</wpt>
<wpt lat="40.761" lon="-94.985">
  <name>NODA</name>
  <desc>NODA/Nodaway Valley County Park  CP PH:712.542.3864     AMEN:E DP approx 3.1 mi NE of Clarinda 40.761 -94.985</desc>
</wpt>
<wpt lat="42.848" lon="-92.524">
  <name>NORC</name>
  <desc>NORC/North Cedar Park  CP PH:319.882.4742   SITES:40  AMEN:E DP DW SH L$ approx 0.7 mi NE of Plainfield 42.848 -92.524</desc>
</wpt>
<wpt lat="41.378" lon="-92.971">
  <name>NORT</name>
  <desc>NORT/North Overlook - Red Rock Lake  COE PH:641.828.7522 mid apr-mid sep  SITES:55  AMEN:E DP DW SH RS L$ approx 3.5 mi SW of Pella 41.378 -92.971</desc>
</wpt>
<wpt lat="42.866" lon="-92.088">
  <name>NORW</name>
  <desc>NORW/North Woods Park  CP PH:319.882.4742     AMEN:E PT L$ approx 1.3 mi N of Sumner 42.866 -92.088</desc>
</wpt>
<wpt lat="43.059" lon="-96.472">
  <name>OAKG</name>
  <desc>OAKG/Oak Grove Co Park  CP PH:712.552.1047  COMM:2 campgrounds SITES:100  AMEN:E DP FT DW SH NR approx 4.4 mi N of Hawarden 43.059 -96.472</desc>
</wpt>
<wpt lat="43.062" lon="-96.459">
  <name>OAKG</name>
  <desc>OAKG/Oak Grove County Park  CP PH:712.552.1047   SITES:55  AMEN:E DP SH approx 4.8 mi N of Hawarden 43.062 -96.459</desc>
</wpt>
<wpt lat="42.256" lon="-94.069">
  <name>OAKP</name>
  <desc>OAKP/Oak Park - Dayton  CP PH:515.547.2711   SITES:44  AMEN:E DP DW SH approx 0.4 mi S  of Dayton 42.256 -94.069</desc>
</wpt>
<wpt lat="40.935" lon="-91.619">
  <name>OAKL</name>
  <desc>OAKL/Oakland Mills Park  CP PH:319.986.5067  COMM:2 campgrounds SITES:50  AMEN:E DP DW SH approx 0.1 mi SW of Oakland Mills 40.935 -91.619</desc>
</wpt>
<wpt lat="43.481" lon="-93.264">
  <name>OCHE</name>
  <desc>OCHE/Ochee Yahola  CP PH:641.324.1524   SITES:4  AMEN:E NW L$ approx 3.3 mi NW of Northwood 43.481 -93.264</desc>
</wpt>
<wpt lat="43.386" lon="-95.535">
  <name>OCHE</name>
  <desc>OCHE/Ocheyedan Pits Rec Area  CP      AMEN:E FT DW approx 2.2 mi S  of Ocheyedan 43.386 -95.535</desc>
</wpt>
<wpt lat="42.308" lon="-95.249">
  <name>ODEB</name>
  <desc>ODEB/Odebolt Memorial Walk RV Park  CP PH:712.668.2231     AMEN:E L$ approx 0.3 mi SE of Odebolt 42.308 -95.249</desc>
</wpt>
<wpt lat="42.648" lon="-91.92">
  <name>OELW</name>
  <desc>OELW/Oelwein City Park  CP PH:319.283.5440   SITES:30  AMEN:WE DP DW SH L$ approx 2.1 mi S  of Oelwein 42.648 -91.92</desc>
</wpt>
<wpt lat="41.197" lon="-95.448">
  <name>OLDE</name>
  <desc>OLDE/Olde Towne Co Park  CP PH:712.741.5465  COMM:primitive - inner tubing on river   AMEN:NH ND NS L$ approx 1.2 mi W of Macedonia 41.197 -95.448</desc>
</wpt>
<wpt lat="42.008" lon="-95.789">
  <name>OLDH</name>
  <desc>OLDH/Oldham Rec Area  CP   COMM:swim   AMEN:E L$ approx 1.6 mi N  of Soldier 42.008 -95.789</desc>
</wpt>
<wpt lat="43.125" lon="-95.122">
  <name>ONEO</name>
  <desc>ONEO/Oneota Little Sioux Access  CP      AMEN:VT approx 1.8 mi SE of Spencer 43.125 -95.122</desc>
</wpt>
<wpt lat="43.276" lon="-92.854">
  <name>OSAG</name>
  <desc>OSAG/Osage Spring City Park  CP PH:319.283.5440     AMEN:NH approx 1.8 mi W of Osage 43.276 -92.854</desc>
</wpt>
<wpt lat="42.793" lon="-91.444">
  <name>OSBO</name>
  <desc>OSBO/Osborne Conservation Center  CP PH:563.245.1516     AMEN:NH approx 27.2 mi NW of Dyersville 42.793 -91.444</desc>
</wpt>
<wpt lat="43.459" lon="-92.98">
  <name>OTRA</name>
  <desc>OTRA/Otranto Co Park  CP PH:641.732.5204     AMEN:WE DP FT DW SH approx 0.3 mi E of Otranto 43.459 -92.98</desc>
</wpt>
<wpt lat="41.246" lon="-93.532">
  <name>OTTE</name>
  <desc>OTTE/Otter Creek Co Park  CP PH:515.961.6169  COMM:primitive - walk to sites only   AMEN:DP SH NR approx 7.9 mi S  of Indianola 41.246 -93.532</desc>
</wpt>
<wpt lat="42.052" lon="-92.52">
  <name>OTTE</name>
  <desc>OTTE/Otter Creek Lake and Park  CP PH:641.484.2231   SITES:83  AMEN:E DP FT DW SH NR approx 5.0 mi NE of Toldedo 42.052 -92.52</desc>
</wpt>
<wpt lat="41.01" lon="-92.43">
  <name>OTTU</name>
  <desc>OTTU/Ottumwa City Park  CP PH:641.682.7873     AMEN:E DP DW SH approx 1.2 mi W of Ottumwa 41.01 -92.43</desc>
</wpt>
<wpt lat="41.909" lon="-91.508">
  <name>PALI</name>
  <desc>PALI/Palisades Kepler State Park  SP PH:319.895.6039 all year  SITES:50  AMEN:E DP DW SH RS L$ approx 4.8 mi W of Mt.Vernon 41.909 -91.508</desc>
</wpt>
<wpt lat="41.292" lon="-94.076">
  <name>PAMM</name>
  <desc>PAMM/Pammel County Park  CP PH:515.462.3536   SITES:40  AMEN:WE DW SH approx 4.2 mi SW of Winterset 41.292 -94.076</desc>
</wpt>
<wpt lat="41.52" lon="-90.687">
  <name>PART</name>
  <desc>PART/Park Terrace - West Lake County Park  CP      AMEN:WES DP FT DW SH approx  mi  of Davenport 41.52 -90.687</desc>
</wpt>
<wpt lat="41.835" lon="-94.11">
  <name>PATT</name>
  <desc>PATT/Pattee Park  CP PH:515.465.4958  COMM:register at Police Department at 908 Willis Avenue in Perry   AMEN:E DP L$ approx 0.3 mi SW of Perry 41.835 -94.11</desc>
</wpt>
<wpt lat="42.2" lon="-95.943">
  <name>PETE</name>
  <desc>PETE/Peters Park - Rodney Pits Rec Area  CP  all year  SITES:25  AMEN:E DP VT DW L$ approx 0.6 mi SE of Rodney 42.2 -95.943</desc>
</wpt>
<wpt lat="42.209" lon="-91.106">
  <name>PICT</name>
  <desc>PICT/Pictured Rocks Co Park  CP   COMM:primitive   AMEN:NH NR approx 4.6 mi SE of Monticello 42.209 -91.106</desc>
</wpt>
<wpt lat="40.843" lon="-95.355">
  <name>PIER</name>
  <desc>PIER/Pierce Creek Rec Area  CP PH:712.542.3864   SITES:20  AMEN:E approx 2.6 mi W of Essex 40.843 -95.355</desc>
</wpt>
<wpt lat="42.993" lon="-91.165">
  <name>PIKE</name>
  <desc>PIKE/Pikes Peak State Park  SP PH:563.873.2341 all year  SITES:77  AMEN:E DP DW SH RS L$ approx 2.3 mi S  of McGregor 42.993 -91.165</desc>
</wpt>
<wpt lat="42.783" lon="-93.647">
  <name>PIKE</name>
  <desc>PIKE/Pikes Timber  CP      AMEN:E FT N$ approx 5.6 mi NE of Clarion 42.783 -93.647</desc>
</wpt>
<wpt lat="41.146" lon="-95.043">
  <name>PILO</name>
  <desc>PILO/Pilot Grove Co Park  CP    SITES:16  AMEN:E NS NR approx 3.0 mi W of Grant 41.146 -95.043</desc>
</wpt>
<wpt lat="43.254" lon="-93.561">
  <name>PILO</name>
  <desc>PILO/Pilot Knob State Park  SP PH:641.581.4835 all year  SITES:60  AMEN:E DP DW SH RS L$ approx 3.9 mi E of Forest City 43.254 -93.561</desc>
</wpt>
<wpt lat="42.454" lon="-91.435">
  <name>PIN</name>
  <desc>PIN/Pin Oak Co Park  CP      AMEN:E FT DW approx 2.5 mi SE of Manchester 42.454 -91.435</desc>
</wpt>
<wpt lat="41.715" lon="-90.529">
  <name>PING</name>
  <desc>PING/Pine Grove - Scott County Park  CP      AMEN:E DP FT DW SH approx  mi  of Long Grove 41.715 -90.529</desc>
</wpt>
<wpt lat="42.371" lon="-93.078">
  <name>PINE</name>
  <desc>PINE/Pine Lake State Park  SP PH:641.858.5832 all year  SITES:124  AMEN:E DP DW SH RS L$ approx 1.4 mi E of Eldora 42.371 -93.078</desc>
</wpt>
<wpt lat="42.413" lon="-93.07">
  <name>PINR</name>
  <desc>PINR/Pine Ridge - Steamboat Rock  CP PH:641.648.4361     AMEN:E DW SH approx 0.6 mi N of Steamboat Rock 42.413 -93.07</desc>
</wpt>
<wpt lat="40.744" lon="-95.222">
  <name>PION</name>
  <desc>PION/Pioneer City Park  CP PH:712.542.3864    approx 8.2 mi E of Shenandoah 40.744 -95.222</desc>
</wpt>
<wpt lat="43.341" lon="-92.68">
  <name>PION</name>
  <desc>PION/Pioneer Co Park  CP      AMEN:WE ND VT NS L$ approx 8.0 mi NE of Osage 43.341 -92.68</desc>
</wpt>
<wpt lat="41.833" lon="-95.93">
  <name>PISG</name>
  <desc>PISG/Pisgah City Park  CP    SITES:6  AMEN:E DP L$ approx 0.3 mi NW of Pisgah 41.833 -95.93</desc>
</wpt>
<wpt lat="42.21" lon="-90.38">
  <name>PLEA</name>
  <desc>PLEA/Pleasant Creek  COE      AMEN:NH DP NS NR approx 24.8 mi SE of Dubuque 42.21 -90.38</desc>
</wpt>
<wpt lat="42.119" lon="-91.814">
  <name>PLEA</name>
  <desc>PLEA/Pleasant Creek State Rec Area  SRA PH:319.436.7716 all year  SITES:69  AMEN:E DP DW SH RS L$ approx 3.8 mi N  of Palo 42.119 -91.814</desc>
</wpt>
<wpt lat="40.711" lon="-94.198">
  <name>POE</name>
  <desc>POE/Poe Hollow County Park  CP PH:641.464.2787   SITES:5  AMEN:E FT NS approx 2.0 mi E of Mount Ayr 40.711 -94.198</desc>
</wpt>
<wpt lat="40.714" lon="-91.436">
  <name>POLL</name>
  <desc>POLL/Pollmiller Park  CP PH:319.376.2341     AMEN:E DP DW SH approx 0.8 mi E of West Point 40.714 -91.436</desc>
</wpt>
<wpt lat="41.071" lon="-95.788">
  <name>PONY</name>
  <desc>PONY/Pony Creek Co Park  CP      AMEN:E L$ approx 3.7 mi N of Pacific Juncti 41.071 -95.788</desc>
</wpt>
<wpt lat="42.585" lon="-93.434">
  <name>POPE</name>
  <desc>POPE/Popejoy Conservation Park  CP      AMEN:E VT L$ approx 0.7 mi SW of Popejoy 42.585 -93.434</desc>
</wpt>
<wpt lat="41.471" lon="-95.338">
  <name>POTT</name>
  <desc>POTT/Pottawattamie County Fairgrounds  CP PH:712.981.7072   SITES:60  AMEN:WES DP DW SH L$ approx 0.4 mi S  of Avoca 41.471 -95.338</desc>
</wpt>
<wpt lat="42.56" lon="-93.057">
  <name>PRAI</name>
  <desc>PRAI/Prairie Bridges Park  CP PH:641.485.1623   SITES:120  AMEN:WES DP DW SH approx 0.4 mi NW of Ackley 42.56 -93.057</desc>
</wpt>
<wpt lat="41.749" lon="-93.688">
  <name>PRAF</name>
  <desc>PRAF/Prairie Flower - Saylorville Lake  COE PH:515.984.6925 early may-mid oct  SITES:250  AMEN:WES DP DW SH RS PA approx 11.0 mi N  of Des Moines 41.749 -93.688</desc>
</wpt>
<wpt lat="40.858" lon="-92.888">
  <name>PRAR</name>
  <desc>PRAR/Prairie Ridge - Rathbun Lake  COE PH:641.724.3103 early may-late sep  SITES:55  AMEN:E DP DW SH RS PA approx 4.3 mi SW of Moravia 40.858 -92.888</desc>
</wpt>
<wpt lat="41.6" lon="-95.212">
  <name>PRAI</name>
  <desc>PRAI/Prairie Rose State Park  SP PH:712.773.2701 all year  SITES:95  AMEN:E DP 60ft DW SH RS L$ approx 6.9 mi SE of Harlan 41.6 -95.212</desc>
</wpt>
<wpt lat="43.084" lon="-95.623">
  <name>PRIM</name>
  <desc>PRIM/Primghar City Park  CP    SITES:15 EL:1506 AMEN:E DP FT DW SH approx 0.3 mi SE of Primghar 43.084 -95.623</desc>
</wpt>
<wpt lat="43.299" lon="-91.809">
  <name>PULP</name>
  <desc>PULP/Pulpit Rock City Campground  CP PH:563.382.9551   SITES:200  AMEN:E DP DW SH L$ approx 1.2 mi W of Decorah 43.299 -91.809</desc>
</wpt>
<wpt lat="41.198" lon="-92.668">
  <name>QUER</name>
  <desc>QUER/Quercus Wilderness Area  CP   COMM:primitive SITES:5  AMEN:NH approx 6.5 mi S  of Oskaloosa 41.198 -92.668</desc>
</wpt>
<wpt lat="42.228" lon="-94.756">
  <name>RAIN</name>
  <desc>RAIN/Rainbow Bend Co Park  CP     approx  mi  of Lake City 42.228 -94.756</desc>
</wpt>
<wpt lat="42.575" lon="-95.731">
  <name>RANN</name>
  <desc>RANN/Ranney Knob Area  CP PH:712.225.6709  COMM:may be closed - flooding - call first SITES:12  AMEN:NH ND VT NS L$ approx 0.7 mi W of Washta 42.575 -95.731</desc>
</wpt>
<wpt lat="40.998" lon="-93.28">
  <name>REDH</name>
  <desc>REDH/Red Haw State Park  SP PH:641.774.5632 all year  SITES:80  AMEN:E DP DW SH RS L$ approx 2.4 mi SE of Chariton 40.998 -93.28</desc>
</wpt>
<wpt lat="42.254" lon="-93.19">
  <name>REEC</name>
  <desc>REEC/Reece Park  CP      AMEN:NH ND FT DW NS approx 6.4 mi W of Union 42.254 -93.19</desc>
</wpt>
<wpt lat="42.438" lon="-95.149">
  <name>REIF</name>
  <desc>REIF/Reiff Park  CP    SITES:7  AMEN:WE DP FT DW approx 1.6 mi S  of Early 42.438 -95.149</desc>
</wpt>
<wpt lat="42.087" lon="-94.628">
  <name>RICH</name>
  <desc>RICH/Richey Campground  CP    SITES:15  AMEN:E VT NW L$ approx 5.6 mi E of Glidden 42.087 -94.628</desc>
</wpt>
<wpt lat="41.491" lon="-91.502">
  <name>RIVJ</name>
  <desc>RIVJ/River Junction Access  CP      AMEN:NH ND VT NS approx 3.9 mi W of Lone Tree 41.491 -91.502</desc>
</wpt>
<wpt lat="43.213" lon="-96.311">
  <name>RIVB</name>
  <desc>RIVB/Rivers Bend  CP      AMEN:E DP DW SH approx 1.0 mi NW of Rock Valley 43.213 -96.311</desc>
</wpt>
<wpt lat="43.436" lon="-92.777">
  <name>RICP</name>
  <desc>RICP/Riverside Co Park  CP PH:641.732.5204     AMEN:WE DP FT DW SH approx 0.3 mi SE of Stacyville 43.436 -92.777</desc>
</wpt>
<wpt lat="41.877" lon="-94.669">
  <name>RICR</name>
  <desc>RICR/Riverside Park - Coon Rapids  CP PH:712.792.4614.  COMM:  SITES:12  AMEN:WE DP DW SH L$ approx 0.6 mi NE of Coon Rapids 41.877 -94.669</desc>
</wpt>
<wpt lat="42.468" lon="-93.813">
  <name>RIVS</name>
  <desc>RIVS/Riverside Park - Webster City  CP PH:515.832.9193     AMEN:E DP DW SH L$ approx 0.2 mi SE of Webster City 42.468 -93.813</desc>
</wpt>
<wpt lat="41.852" lon="-90.185">
  <name>RIVC</name>
  <desc>RIVC/Riverview City Park - Clinton  CP PH:563.243.1260     AMEN:WES DP DW SH approx 0.5 mi N of Clinton 41.852 -90.185</desc>
</wpt>
<wpt lat="42.064" lon="-92.902">
  <name>RIVV</name>
  <desc>RIVV/Riverview Park - Marshalltown  CP PH:641.754.5715     AMEN:WES DP DW SH L$ approx 1.1 mi N of Marshalltown 42.064 -92.902</desc>
</wpt>
<wpt lat="42.47" lon="-92.664">
  <name>ROAD</name>
  <desc>ROAD/Roadman Roadside Park  CP PH:319.345.2688  COMM:overnight camping in parking area only   AMEN:NH ND FT DW NS N$ approx 1.9 mi W of Dike 42.47 -92.664</desc>
</wpt>
<wpt lat="41.426" lon="-93.042">
  <name>ROBE</name>
  <desc>ROBE/Roberts Creek Park  CP PH:641.627.5507  COMM:dupe   AMEN:E DP DW SH approx 6.6 mi W of Pella 41.426 -93.042</desc>
</wpt>
<wpt lat="41.507" lon="-92.645">
  <name>ROBT</name>
  <desc>ROBT/Robertson Access  CP   COMM:primitive   AMEN:NH FT approx 2.8 mi N of New Sharon 41.507 -92.645</desc>
</wpt>
<wpt lat="43.399" lon="-95.736">
  <name>ROBI</name>
  <desc>ROBI/Robinson Park  CP   COMM:restrooms may not be clean SITES:13 EL:1508 AMEN:WE DP DW SH L$ approx 0.8 mi E of Sibley 43.399 -95.736</desc>
</wpt>
<wpt lat="41.75" lon="-90.328">
  <name>ROCM</name>
  <desc>ROCM/Rock Creek County Marina and Campground  CP PH:563.259.1876     AMEN:E DP approx 4.6 mi SW of Camanche 41.75 -90.328</desc>
</wpt>
<wpt lat="41.761" lon="-92.837">
  <name>ROCK</name>
  <desc>ROCK/Rock Creek State Park  SP PH:641.236.3722 all year  SITES:200  AMEN:E DP 60ft DW SH RS L$ approx 4.7 mi NE of Kellogg 41.761 -92.837</desc>
</wpt>
<wpt lat="42.4" lon="-94.634">
  <name>ROCK</name>
  <desc>ROCK/Rockwell City RV Park  CP      AMEN:E DP DW SH approx  mi  of Rockwell City 42.4 -94.634</desc>
</wpt>
<wpt lat="42.196" lon="-92.083">
  <name>RODG</name>
  <desc>RODG/Rodgers County Park  CP PH:319.472.4942   SITES:50  AMEN:E DW SH approx 4.0 mi NW of Vinton 42.196 -92.083</desc>
</wpt>
<wpt lat="40.849" lon="-92.981">
  <name>ROLL</name>
  <desc>ROLL/Rolling Cove - Rathbun Lake  COE PH:641.647.2464 early may-late sep  SITES:30  AMEN:NH ND NS RS L$ approx 10.0 mi NW of Centerville 40.849 -92.981</desc>
</wpt>
<wpt lat="41.732" lon="-95.327">
  <name>ROSM</name>
  <desc>ROSM/Rosman Glendale Farm Rec Area  CP      AMEN:E FT DW approx 5.5 mi N  of Harlan 41.732 -95.327</desc>
</wpt>
<wpt lat="40.609" lon="-94.964">
  <name>ROSS</name>
  <desc>ROSS/Ross County Park  CP PH:712.542.3864  COMM:no facilities   AMEN:NH ND NT NW NS NR approx 4.1 mi NE of Braddyville 40.609 -94.964</desc>
</wpt>
<wpt lat="40.914" lon="-91.81">
  <name>ROUN</name>
  <desc>ROUN/Round Prairie Park  CP PH:641.472.4421     AMEN:E VT DW approx 10.4 mi SE of Fairfield 40.914 -91.81</desc>
</wpt>
<wpt lat="43.127" lon="-92.894">
  <name>RUDD</name>
  <desc>RUDD/Rudd Eastside Park  CP    SITES:14  AMEN:WE DW SH approx 0.6 mi E of Rudd 43.127 -92.894</desc>
</wpt>
<wpt lat="42.419" lon="-94.985">
  <name>SACC</name>
  <desc>SACC/Sac City Park  CP PH:712.662.4295     AMEN:E approx 0.3 mi SE of Sac Cityt 42.419 -94.985</desc>
</wpt>
<wpt lat="40.629" lon="-94.497">
  <name>SAND</name>
  <desc>SAND/Sands Timber Rec Area  CP PH:712.523.2852   SITES:7  AMEN:E approx 1.4 mi NW of Blockton 40.629 -94.497</desc>
</wpt>
<wpt lat="41.814" lon="-91.597">
  <name>SAND</name>
  <desc>SAND/Sandy Beach - Coralville Lake  COE PH:319.338.3543 early may-late sep  SITES:60  AMEN:WES DP DW SH RS PA approx 11.1 mi N  of Iowa City 41.814 -91.597</desc>
</wpt>
<wpt lat="43.064" lon="-96.118">
  <name>SAND</name>
  <desc>SAND/Sandy Hollow Park  CP PH:712.722.2491     AMEN:WES DP FT DW SH L$ approx 3.1 mi E of Sioux Center 43.064 -96.118</desc>
</wpt>
<wpt lat="43.195" lon="-92.161">
  <name>SAUD</name>
  <desc>SAUD/Saude Rec Area  CP    SITES:20  AMEN:PT approx 16.0 mi N of Fredericksburg 43.195 -92.161</desc>
</wpt>
<wpt lat="41.499" lon="-91.17">
  <name>SAUL</name>
  <desc>SAUL/Saulsbury Bridge  CP PH:563.264.5922  COMM:3 camping areas - tenting is walk-to sites SITES:35  AMEN:E DP FTVT DW SH approx 8.3 mi NW of Muscatine 41.499 -91.17</desc>
</wpt>
<wpt lat="41.805" lon="-95.672">
  <name>SCHA</name>
  <desc>SCHA/Schaben County Park  CP PH:712.647.2785     AMEN:E DW SH approx 5.0 mi SW of Dunlap 41.805 -95.672</desc>
</wpt>
<wpt lat="43.151" lon="-95.289">
  <name>SCHA</name>
  <desc>SCHA/Scharnberg Co Park  CP PH:712.262.2187  COMM:swim SITES:62  AMEN:E DW SH approx 2.1 mi E of Everly 43.151 -95.289</desc>
</wpt>
<wpt lat="41.775" lon="-95.411">
  <name>SCHI</name>
  <desc>SCHI/Schimerowski Rec Area  CP PH:712.744.3403     AMEN:E FT DW approx 0.3 mi E of Earling 41.775 -95.411</desc>
</wpt>
<wpt lat="41.714" lon="-90.527">
  <name>SCOT</name>
  <desc>SCOT/Scott County Park  CP PH:563.328.3282   SITES:400  AMEN:E DW approx 4.9 mi NE of Eldridge 41.714 -90.527</desc>
</wpt>
<wpt lat="42.599" lon="-91.633">
  <name>SCOU</name>
  <desc>SCOU/Scout Park - Lamont  CP PH:563.924.2194     AMEN:E NS approx 0.5 mi E of Lamont 42.599 -91.633</desc>
</wpt>
<wpt lat="40.67" lon="-93.12">
  <name>SEYM</name>
  <desc>SEYM/Seymour Lake Co Park  CP   COMM:primitive - undesignated sites SITES:20  AMEN:NH FT DW approx 0.8 mi S  of Seymour 40.67 -93.12</desc>
</wpt>
<wpt lat="41.446" lon="-90.878">
  <name>SHAD</name>
  <desc>SHAD/Shady Creek  - Mississippi River  COE PH:563.262.8090 early may-mid oct  SITES:50  AMEN:E DP DW SH RS PA approx 8.7 mi E of Muscatine 41.446 -90.878</desc>
</wpt>
<wpt lat="42.723" lon="-92.591">
  <name>SHER</name>
  <desc>SHER/Shell Rock Rec Area  CP    SITES:40  AMEN:E DP FT DW SH approx 1.0 mi NW of Shell Rock 42.723 -92.591</desc>
</wpt>
<wpt lat="43.174" lon="-93.044">
  <name>SHEL</name>
  <desc>SHEL/Shellrock River Co Preserve  CP PH:641.423.5309  COMM:primitive   AMEN:NH ND VT NS N$ approx 2.9 mi NW of Nora Springs 43.174 -93.044</desc>
</wpt>
<wpt lat="41.78" lon="-90.784">
  <name>SHEM</name>
  <desc>SHEM/Sherman Co Park  CP      AMEN:E VT L$ approx 3.4 mi SW of Calamus 41.78 -90.784</desc>
</wpt>
<wpt lat="40.615" lon="-91.677">
  <name>SHIM</name>
  <desc>SHIM/Shimek State Forest  SF PH:319.878.3811 all year    AMEN:NH DP SH RS approx 3.9 mi SE of Farmington 40.615 -91.677</desc>
</wpt>
<wpt lat="43.053" lon="-94.397">
  <name>SIEM</name>
  <desc>SIEM/Siems County Park  CP PH:515.295.2138   SITES:20  AMEN:E DP approx 1.4 mi SE of Whittemore 43.053 -94.397</desc>
</wpt>
<wpt lat="42.638" lon="-92.143">
  <name>SIGG</name>
  <desc>SIGG/Siggelkov County Park  CP      AMEN:NH ND NS approx 4.8 mi N of Dunkerton 42.638 -92.143</desc>
</wpt>
<wpt lat="43.448" lon="-95.326">
  <name>SILE</name>
  <desc>SILE/Silver Lake City Park - East  CP PH:712.832.3588     AMEN:WE L$ approx 0.4 mi SW of Lake Park 43.448 -95.326</desc>
</wpt>
<wpt lat="43.441" lon="-95.35">
  <name>SILS</name>
  <desc>SILS/Silver Lake City Park - South  CP PH:712.832.3588     AMEN:WE approx 1.6 mi SW of Lake Park 43.441 -95.35</desc>
</wpt>
<wpt lat="43.485" lon="-93.42">
  <name>SILV</name>
  <desc>SILV/Silver Lake Co Park  CP    SITES:8  AMEN:E NW NR L$ approx 10.4 mi W of Northwood 43.485 -93.42</desc>
</wpt>
<wpt lat="42.426" lon="-91.322">
  <name>SILP</name>
  <desc>SILP/Silver Lake County Park  CP      AMEN:NH FT DW approx 0.5 mi SE of Delhi 42.426 -91.322</desc>
</wpt>
<wpt lat="42.649" lon="-95.591">
  <name>SILS</name>
  <desc>SILS/Silver Sioux Recreation Area  CP PH:712.225.6709     AMEN:E DP FT DW SH L$ approx 2.9 mi NE of Quimby 42.649 -95.591</desc>
</wpt>
<wpt lat="41.25" lon="-91.97">
  <name>SKUN</name>
  <desc>SKUN/Skunk River Access  CP   COMM:primitive   AMEN:NH approx 4.6 mi N of Richland 41.25 -91.97</desc>
</wpt>
<wpt lat="40.653" lon="-93.845">
  <name>SLIP</name>
  <desc>SLIP/Slip Bluff County Park  CP PH:641.446.7307   SITES:16  AMEN:E approx 5.1 mi NE of Lamoni 40.653 -93.845</desc>
</wpt>
<wpt lat="43.122" lon="-94.243">
  <name>SMIT</name>
  <desc>SMIT/Smith Lake County Park  CP PH:515.295.2138   SITES:50  AMEN:E DP DW SH approx 3.6 mi N  of Algona 43.122 -94.243</desc>
</wpt>
<wpt lat="41.193" lon="-91.111">
  <name>SNIV</name>
  <desc>SNIV/Snively Access  CP PH:319.523.8381   SITES:30  AMEN:E L$ approx 3.9 mi E of Wapello 41.193 -91.111</desc>
</wpt>
<wpt lat="42.284" lon="-96.337">
  <name>SNYD</name>
  <desc>SNYD/Snyder Bend County Park  CP PH:712.946.5622   SITES:45  AMEN:E DP DW SH L$ approx 3.0 mi SW of Salix 42.284 -96.337</desc>
</wpt>
<wpt lat="41.079" lon="-94.215">
  <name>SOUT</name>
  <desc>SOUT/South - Three Mile Co Rec Area  CP PH:641.347.5100     AMEN:E DP DW SH NR approx 3.6 mi N  of Afton 41.079 -94.215</desc>
</wpt>
<wpt lat="43.442" lon="-91.672">
  <name>SOUB</name>
  <desc>SOUB/South Bear Co Park  CP    SITES:5  AMEN:NH ND VT NS NR N$ approx 0.2 mi W of Highlandville 43.442 -91.672</desc>
</wpt>
<wpt lat="42.744" lon="-92.987">
  <name>SOUF</name>
  <desc>SOUF/South Fork Access  - Dumont Park  CP PH:319.278.4237  COMM:no facilities   AMEN:NH ND NT NW NS NR approx 16.4 mi W of Clarksville 42.744 -92.987</desc>
</wpt>
<wpt lat="43.083" lon="-93.994">
  <name>SOUP</name>
  <desc>SOUP/South Park - Wesley  CP   COMM:very few sites SITES:5  AMEN:E ND NS approx  mi  of Wesley 43.083 -93.994</desc>
</wpt>
<wpt lat="42.063" lon="-90.17">
  <name>SOUS</name>
  <desc>SOUS/South Sabula Lakes County Park  CP      AMEN:E DP DW SH approx 25.4 mi E of Maquoketa 42.063 -90.17</desc>
</wpt>
<wpt lat="42.22" lon="-95.954">
  <name>SOUT</name>
  <desc>SOUT/Southwood Conservation Area  CP PH:712.889.2215   SITES:30  AMEN:E DW SH approx 1.3 mi SW of Smithland 42.22 -95.954</desc>
</wpt>
<wpt lat="42.909" lon="-92.239">
  <name>SPLI</name>
  <desc>SPLI/Split Rock County Park  CP PH:641.394.4714   SITES:54  AMEN:E DW SH approx 4.4 mi SW of Fredericksburg 42.909 -92.239</desc>
</wpt>
<wpt lat="42.786" lon="-92.68">
  <name>SPOC</name>
  <desc>SPOC/Sportsman Park - Clarksville  CP PH:319.278.4237  COMM:tent only   AMEN:NH DP FT DW NS L$ approx 0.6 mi W of Clarksville 42.786 -92.68</desc>
</wpt>
<wpt lat="41.847" lon="-94.21">
  <name>SPOD</name>
  <desc>SPOD/Sportsman Park - Dawson  CP PH:515.465.3577   SITES:18  AMEN:E NR L$ approx 0.7 mi NE of Dawson 41.847 -94.21</desc>
</wpt>
<wpt lat="42.068" lon="-94.291">
  <name>SPRL</name>
  <desc>SPRL/Spring Lake County Park  CP PH:515.386.5674   SITES:125  AMEN:E DP approx 5.6 mi NE of Jefferson 42.068 -94.291</desc>
</wpt>
<wpt lat="41.774" lon="-94.467">
  <name>SPRI</name>
  <desc>SPRI/Springbrook State Park  SP PH:641.747.3591 all year  SITES:120  AMEN:E DP DW SH RS L$ approx 7.0 mi N of Guthrie Center 41.774 -94.467</desc>
</wpt>
<wpt lat="42.304" lon="-90.436">
  <name>SPRU</name>
  <desc>SPRU/Spruce Creek County Park  CP PH:563.652.3783   SITES:85  AMEN:WE DP DW SH approx 3.1 mi N  of Bellevue 42.304 -90.436</desc>
</wpt>
<wpt lat="42.02" lon="-91.556">
  <name>SQUA</name>
  <desc>SQUA/Squaw Creek County Park  CP PH:319.892.6450   SITES:60  AMEN:E DP 40ft DW SH L$ approx 2.3 mi SE of Marion 42.02 -91.556</desc>
</wpt>
<wpt lat="41.95" lon="-94.29">
  <name>SQUI</name>
  <desc>SQUI/Squirrel Hollow Co Park  CP  early apr-late oct  SITES:30  AMEN:E approx 6.4 mi SE of Jefferson 41.95 -94.29</desc>
</wpt>
<wpt lat="41.022" lon="-93.482">
  <name>STEP</name>
  <desc>STEP/Stephens State Forest  SF PH:641.774.4559 all year COMM:2 campgrounds   AMEN:NH ND VT NS RS approx 1.2 mi W of Lucas 41.022 -93.482</desc>
</wpt>
<wpt lat="40.828" lon="-91.437">
  <name>STPP</name>
  <desc>STPP/Stephenson Park  CP PH:319.986.5067     AMEN:NH approx 0.4 mi S  of Lowell 40.828 -91.437</desc>
</wpt>
<wpt lat="42.609" lon="-95.681">
  <name>STIE</name>
  <desc>STIE/Stieneke Area Park  CP PH:712.225.6709   SITES:5  AMEN:NH ND FT DW NS L$ approx 2.5 mi SW of Quimby 42.609 -95.681</desc>
</wpt>
<wpt lat="42.394" lon="-92.885">
  <name>STOE</name>
  <desc>STOE/Stoehr Fishing Area  CP      AMEN:NH ND VT NS approx 3.3 mi SW of Grundy 42.394 -92.885</desc>
</wpt>
<wpt lat="42.557" lon="-96.47">
  <name>STON</name>
  <desc>STON/Stone State Park  SP PH:712.255.4698 all year  SITES:30  AMEN:E RS approx 5.3 mi NW of Sioux City 42.557 -96.47</desc>
</wpt>
<wpt lat="42.579" lon="-94.848">
  <name>STRA</name>
  <desc>STRA/Straight Park  CP      AMEN:E DP L$ approx 0.2 mi SW of Fonda 42.579 -94.848</desc>
</wpt>
<wpt lat="42.271" lon="-93.931">
  <name>STRA</name>
  <desc>STRA/Stratford City Park  CP    SITES:31  AMEN:E DP DW SH approx 0.2 mi W of Stratford 42.271 -93.931</desc>
</wpt>
<wpt lat="41.776" lon="-91.559">
  <name>SUGA</name>
  <desc>SUGA/Sugar Bottom - Coralville Lake  COE PH:319.338.3543 early may-late sep  SITES:235  AMEN:WES DP 60ft DW SH RS PA L$ approx 4.0 mi SW of Solon 41.776 -91.559</desc>
</wpt>
<wpt lat="41.529" lon="-90.683">
  <name>SUMT</name>
  <desc>SUMT/Summit - West Lake County Park  CP PH:563.328.3281     AMEN:WES DP FT DW approx  mi  of Davenport 41.529 -90.683</desc>
</wpt>
<wpt lat="41.399" lon="-95.026">
  <name>SUNN</name>
  <desc>SUNN/Sunnyside Park  CP      AMEN:E DP DW SH L$ approx 0.7 mi SW of Atlantic 41.399 -95.026</desc>
</wpt>
<wpt lat="41.398" lon="-95.025">
  <name>SUNN</name>
  <desc>SUNN/Sunnyside Park Campground  CP      AMEN:E DP approx  mi  of Atlantic 41.398 -95.025</desc>
</wpt>
<wpt lat="42.628" lon="-95.175">
  <name>SUNR</name>
  <desc>SUNR/Sunrise  CP PH:712.732.8023   SITES:160  AMEN:E DP DW SH L$ approx 1.7 mi SE of Storm Lake 42.628 -95.175</desc>
</wpt>
<wpt lat="42.786" lon="-94.953">
  <name>SUNS</name>
  <desc>SUNS/Sunset City Park - Albert  CP PH:712.843.5613     AMEN:E DP FT DW SH L$ approx 0.6 mi N  of Albert City 42.786 -94.953</desc>
</wpt>
<wpt lat="42.035" lon="-94.846">
  <name>SWAN</name>
  <desc>SWAN/Swan Lake State Park  SP PH:712.792.4614   SITES:110  AMEN:E DP DW SH NR approx 2.3 mi SE of Carroll 42.035 -94.846</desc>
</wpt>
<wpt lat="41.885" lon="-93.855">
  <name>SWED</name>
  <desc>SWED/Swede Point Park  CP PH:515.795.2809     AMEN:E DP DW SH L$ approx 2.2 mi W of Madrid 41.885 -93.855</desc>
</wpt>
<wpt lat="42.431" lon="-90.739">
  <name>SWIS</name>
  <desc>SWIS/Swiss Valley County Park  CP PH:563.556.6745   SITES:100  AMEN:E DP DW SH approx 6.1 mi SW of Dubuque 42.431 -90.739</desc>
</wpt>
<wpt lat="42.225" lon="-92.422">
  <name>TFCL</name>
  <desc>TFCL/T. F. Clark Co Park  CP    SITES:13  AMEN:E ND VT DW NS approx 3.1 mi NE of Traer 42.225 -92.422</desc>
</wpt>
<wpt lat="41.72" lon="-91.528">
  <name>TAIW</name>
  <desc>TAIW/Tailwater  - Coralville Lake  COE PH:319.338.3543   SITES:30  AMEN:E DP DW SH RS PA L$ approx 4.1 mi N of Iowa City 41.72 -91.528</desc>
</wpt>
<wpt lat="41.021" lon="-94.072">
  <name>THAY</name>
  <desc>THAY/Thayer Lake Rec Area  CP PH:641.782.7111     AMEN:E approx 1.2 mi SW of Thayer 41.021 -94.072</desc>
</wpt>
<wpt lat="41.643" lon="-93.378">
  <name>THOM</name>
  <desc>THOM/Thomas Mitchell County Park  CP PH:515.967.4889   SITES:49  AMEN:E approx 1.9 mi SW of Mitchellville 41.643 -93.378</desc>
</wpt>
<wpt lat="43.262" lon="-93.756">
  <name>THOR</name>
  <desc>THOR/Thorpe Park  CP    SITES:15  AMEN:E VT DW L$ approx 6.0 mi W of Forest City 43.262 -93.756</desc>
</wpt>
<wpt lat="42.456" lon="-91.874">
  <name>THRE</name>
  <desc>THRE/Three Elms County Park  CP     approx 1.2 mi SE of Independence 42.456 -91.874</desc>
</wpt>
<wpt lat="41.085" lon="-94.213">
  <name>THRM</name>
  <desc>THRM/Three Mile Rec Area  CP PH:641.782.7111  COMM:north and south campgrounds SITES:48  AMEN:E DP SH approx 4.0 mi N  of Afton 41.085 -94.213</desc>
</wpt>
<wpt lat="42.631" lon="-92.536">
  <name>THUN</name>
  <desc>THUN/Thunder Woman Park       approx 4.0 mi W of Janesville 42.631 -92.536</desc>
</wpt>
<wpt lat="42.088" lon="-93.001">
  <name>TIMM</name>
  <desc>TIMM/Timmons Grove County Park  CP PH:641.752.5490   SITES:18  AMEN:E FT DW NS approx 5.5 mi NW of Marshalltown 42.088 -93.001</desc>
</wpt>
<wpt lat="43.07" lon="-95.616">
  <name>TJOS</name>
  <desc>TJOS/Tjossem County Park  CP PH:712.295.7200     AMEN:L$ L$ approx 1.3 mi SE of Primghar 43.07 -95.616</desc>
</wpt>
<wpt lat="42.401" lon="-93.07">
  <name>TOWE</name>
  <desc>TOWE/Tower Rock - Steamboat Rock  CP PH:641.648.4361    approx 0.3 mi S  of Steamboat Rock 42.401 -93.07</desc>
</wpt>
<wpt lat="42.318" lon="-91.716">
  <name>TROY</name>
  <desc>TROY/Troy Mills Wapsi Access  CP   COMM:no facilities   AMEN:NH ND NT NW NS NR approx 5.7 mi SE of Quasqueton 42.318 -91.716</desc>
</wpt>
<wpt lat="42.403" lon="-91.385">
  <name>TURT</name>
  <desc>TURT/Turtle Creek County Park  CP PH:563.927.3410   SITES:30  AMEN:E DP approx 6.8 mi SE of Manchester 42.403 -91.385</desc>
</wpt>
<wpt lat="43.489" lon="-94.614">
  <name>TUTT</name>
  <desc>TUTT/Tuttle Lake Park  CP PH:712.260.6697   SITES:65  AMEN:E DP DW SH L$ approx 1.6 mi N of Dolliver 43.489 -94.614</desc>
</wpt>
<wpt lat="42.818" lon="-91.881">
  <name>TWIN</name>
  <desc>TWIN/Twin Bridges County Park  CP PH:563.927.3410   SITES:45  AMEN:WE DP approx 3.1 mi N of Maynard 42.818 -91.881</desc>
</wpt>
<wpt lat="43.014" lon="-92.389">
  <name>TWIE</name>
  <desc>TWIE/Twin Ponds Co Park  - East  CP PH:641.394.4714    approx 3.7 mi E of Ionia 43.014 -92.389</desc>
</wpt>
<wpt lat="43.009" lon="-92.395">
  <name>TWIW</name>
  <desc>TWIW/Twin Ponds Co Park  - West  CP PH:641.394.4714    approx 3.5 mi SE of Ionia 43.009 -92.395</desc>
</wpt>
<wpt lat="42.125" lon="-92.725">
  <name>UNIO</name>
  <desc>UNIO/Union Grove State Park  SP PH:641.473.2556 all year  SITES:26  AMEN:NH ND VT DW NS RS L$ approx 4.4 mi S  of Gladbrook 42.125 -92.725</desc>
</wpt>
<wpt lat="41.457" lon="-92.569">
  <name>UNIO</name>
  <desc>UNIO/Union Mills Access  CP   COMM:unknown facilities   AMEN:NH approx  mi  of New Sharon 41.457 -92.569</desc>
</wpt>
<wpt lat="42.252" lon="-94.543">
  <name>UNIV</name>
  <desc>UNIV/University 40  CP      AMEN:NH ND NS approx 1.3 mi S  of Lohrville 42.252 -94.543</desc>
</wpt>
<wpt lat="40.772" lon="-91.29">
  <name>UPPA</name>
  <desc>UPPA/Upper Augusta Skunk River Access  CP      AMEN:NH approx 1.2 mi NW of Augusta 40.772 -91.29</desc>
</wpt>
<wpt lat="43.348" lon="-92.137">
  <name>VERN</name>
  <desc>VERN/Vernon Springs Turkey River County Park  CP PH:563.547.3634     AMEN:E DW SH approx 0.2 mi SE of Vernon Springs 43.348 -92.137</desc>
</wpt>
<wpt lat="42.393" lon="-91.765">
  <name>VETR</name>
  <desc>VETR/Veterans Memorial County Park  CP PH:319.934.3340     AMEN:NH ND NS approx 0.2 mi W of Quasqueton 42.393 -91.765</desc>
</wpt>
<wpt lat="40.392" lon="-91.378">
  <name>VICT</name>
  <desc>VICT/Victory Park  CP PH:319.524.7122   SITES:5  AMEN:WE DP NS approx 1.3 mi SE of Keokuk 40.392 -91.378</desc>
</wpt>
<wpt lat="40.964" lon="-95.043">
  <name>VIKI</name>
  <desc>VIKI/Viking Lake State Park  SP PH:712.829.2235 all year  SITES:120  AMEN:E DP DW SH RS L$ approx 3.2 mi E of Stanton 40.964 -95.043</desc>
</wpt>
<wpt lat="41.142" lon="-91.32">
  <name>VIRG</name>
  <desc>VIRG/Virginia Grove Rec Area  CP PH:319.523.8381     AMEN:E PT L$ approx 4.5 mi NW of Morning Sun 41.142 -91.32</desc>
</wpt>
<wpt lat="42.866" lon="-91.758">
  <name>VOLG</name>
  <desc>VOLG/Volga River  State Rec Area  SRA  all year  SITES:41  AMEN:NH DP DW SH RS L$ approx 2.8 mi NE of Fayette 42.866 -91.758</desc>
</wpt>
<wpt lat="40.658" lon="-95.23">
  <name>WABA</name>
  <desc>WABA/Wabash Trace Park  CP   COMM:tent only   AMEN:E DW SH L$ approx 0.3 mi N  of Coin 40.658 -95.23</desc>
</wpt>
<wpt lat="42.192" lon="-91.523">
  <name>WAKP</name>
  <desc>WAKP/Wakpicada Natural Area  CP PH:319.438.6616     AMEN:NH approx 0.8 mi S  of Central City 42.192 -91.523</desc>
</wpt>
<wpt lat="41.4" lon="-92.991">
  <name>WALL</name>
  <desc>WALL/Wallashuck - Red Rock Lake  COE PH:641.828.7522 mid apr-late sep  SITES:80  AMEN:E DP DW SH RS approx 3.9 mi W of Pella 41.4 -92.991</desc>
</wpt>
<wpt lat="41.91" lon="-90.863">
  <name>WALN</name>
  <desc>WALN/Walnut Grove Co Park  CP      AMEN:E FT DW SH L$ approx 0.4 mi N of Toronto 41.91 -90.863</desc>
</wpt>
<wpt lat="41.538" lon="-93.747">
  <name>WALW</name>
  <desc>WALW/Walnut Woods State Park  SP PH:515.285.4502 all year  SITES:25  AMEN:WES RS approx 3.3 mi SW of West Des Moines 41.538 -93.747</desc>
</wpt>
<wpt lat="41.187" lon="-91.193">
  <name>WAPE</name>
  <desc>WAPE/Wapello Fairgrounds Park  CP PH:319.523.4091     AMEN:WE DP approx 0.6 mi NW of Wapello 41.187 -91.193</desc>
</wpt>
<wpt lat="42.1" lon="-91.292">
  <name>WAPS</name>
  <desc>WAPS/Wapsipinicon State Park  SP PH:319.462.2761 all year  SITES:25  AMEN:E DP DW SH RS L$ approx 0.7 mi SW of Anamosa 42.1 -91.292</desc>
</wpt>
<wpt lat="40.939" lon="-91.622">
  <name>WATE</name>
  <desc>WATE/Water Works Park  CP PH:319.986.5067   SITES:30  AMEN:E FT DW L$ approx 4.4 mi SW of Mount Pleasant 40.939 -91.622</desc>
</wpt>
<wpt lat="40.938" lon="-91.619">
  <name>WATE</name>
  <desc>WATE/Waterworks Park - Oakland Mills Park  CP PH:319.986.5067     AMEN:NH approx 4.3 mi SW of Mt.Pleasant 40.938 -91.619</desc>
</wpt>
<wpt lat="40.681" lon="-95.682">
  <name>WAUB</name>
  <desc>WAUB/Waubonsie State Park  SP PH:712.382.2786 all year  SITES:40  AMEN:E DP 60ft DW SH RS L$ approx 5.4 mi N  of Hamburg 40.681 -95.682</desc>
</wpt>
<wpt lat="40.646" lon="-92.076">
  <name>WAUT</name>
  <desc>WAUT/Waubonsie Trail Park  CP PH:319.397.2295   SITES:7  AMEN:WES DP approx 0.3 mi W of Cantril 40.646 -92.076</desc>
</wpt>
<wpt lat="43.258" lon="-91.474">
  <name>WAUK</name>
  <desc>WAUK/Waukon City Park  CP PH:563.568.0081   SITES:42  AMEN:WE DP DW SH L$ approx 0.8 mi S  of Waukon 43.258 -91.474</desc>
</wpt>
<wpt lat="40.757" lon="-91.27">
  <name>WELT</name>
  <desc>WELT/Welter Recreation Park  CP PH:319.753.8260     AMEN:NH approx 0.3 mi E of Augusta 40.757 -91.27</desc>
</wpt>
<wpt lat="42.636" lon="-92.643">
  <name>WEST</name>
  <desc>WEST/West Fork Forest Access  CP   COMM:no facilities   AMEN:NH ND NT NW NS NR approx 5.9 mi SW of Shell Rock 42.636 -92.643</desc>
</wpt>
<wpt lat="43.165" lon="-92.757">
  <name>WESI</name>
  <desc>WESI/West Idlewild County Campground  CP PH:641.756.3490     AMEN:NH L$ approx 2.8 mi NW of Floyd 43.165 -92.757</desc>
</wpt>
<wpt lat="41.52" lon="-90.688">
  <name>WESL</name>
  <desc>WESL/West Lake County Park  CP PH:563.328.3281  COMM:2 campgrounds SITES:140  AMEN:40ft approx 5.7 mi W of Davenport 41.52 -90.688</desc>
</wpt>
<wpt lat="41.725" lon="-91.536">
  <name>WESO</name>
  <desc>WESO/West Overlook - Coralville Lake  COE PH:319.338.3543   SITES:90  AMEN:E DP DW SH RS PA approx 4.4 mi N  of Iowa City 41.725 -91.536</desc>
</wpt>
<wpt lat="43.431" lon="-96.185">
  <name>WEST</name>
  <desc>WEST/Westside County Park - Rock Rapids  CP PH:712.472.3456   COMM:unknown facilities SITES:8 approx  mi  of Rock Rapids 43.431 -96.185</desc>
</wpt>
<wpt lat="41.383" lon="-93.024">
  <name>WHIT</name>
  <desc>WHIT/Whitebreast - Red Rock Lake  COE PH:641.828.7522 mid apr-mid sep  SITES:130  AMEN:E DP DW SH RS approx 5.9 mi NE of Knoxville 41.383 -93.024</desc>
</wpt>
<wpt lat="42.194" lon="-91.887">
  <name>WILD</name>
  <desc>WILD/Wildcat Bluff County Park  CP PH:319.472.3318   SITES:50  AMEN:E NS approx 2.2 mi S  of Urbana 42.194 -91.887</desc>
</wpt>
<wpt lat="42.75" lon="-92.784">
  <name>WILD</name>
  <desc>WILD/Wilder City Park  CP PH:319.267.2245   SITES:48  AMEN:E DP FT DW SH L$ approx 0.6 mi SE of Allison 42.75 -92.784</desc>
</wpt>
<wpt lat="43.204" lon="-93.082">
  <name>WILK</name>
  <desc>WILK/Wilkinson - Pioneer County Park  CP PH:641.423.5309   SITES:42  AMEN:E DP DW SH L$ approx 0.4 mi E of Rock Falls 43.204 -93.082</desc>
</wpt>
<wpt lat="41.906" lon="-95.053">
  <name>WILL</name>
  <desc>WILL/Willow Creek City Park - Manning  CP PH:712.655.3131     AMEN:WE DP FT DW L$ approx  mi  of Manning 41.906 -95.053</desc>
</wpt>
<wpt lat="42.803" lon="-96.155">
  <name>WILC</name>
  <desc>WILC/Willow Creek Park - Le Mars  CP PH:712.546.8360   SITES:20  AMEN:WE DW SH approx 0.8 mi NE of Le Mars 42.803 -96.155</desc>
</wpt>
<wpt lat="41.772" lon="-95.786">
  <name>WILL</name>
  <desc>WILL/Willow Lake County Rec Area - Woodbine  CP      AMEN:E DW SH approx 4.8 mi NW of Woodbine 41.772 -95.786</desc>
</wpt>
<wpt lat="41.492" lon="-96.01">
  <name>WILS</name>
  <desc>WILS/Wilson Island State Rec Area  SRA PH:712.642.2069 all year  SITES:135  AMEN:E DP 60ft DW SH RS L$ approx 7.7 mi SW of Missouri Valle 41.492 -96.01</desc>
</wpt>
<wpt lat="40.84" lon="-94.545">
  <name>WILS</name>
  <desc>WILS/Wilson Lake County Park  CP    SITES:10  AMEN:E approx 3.0 mi S  of Lenox 40.84 -94.545</desc>
</wpt>
<wpt lat="40.642" lon="-91.489">
  <name>WILP</name>
  <desc>WILP/Wilson Lake Park - Fort Madison  CP PH:319.463.7673     AMEN:E DP approx 9.2 mi W of Fort Madison 40.642 -91.489</desc>
</wpt>
<wpt lat="40.73" lon="-94.829">
  <name>WIND</name>
  <desc>WIND/Windmill Lake Co Park  CP    SITES:14  AMEN:E approx 3.7 mi E of New Market 40.73 -94.829</desc>
</wpt>
<wpt lat="41.328" lon="-94.005">
  <name>WINT</name>
  <desc>WINT/Winterset City Park  CP    SITES:34  AMEN:WES DP DW SH approx 0.5 mi E of Winterset 41.328 -94.005</desc>
</wpt>
<wpt lat="42.773" lon="-93.18">
  <name>WKW</name>
  <desc>WKW/WKW Conservation Park  CP PH:641.456.4375     AMEN:E ND VT NS approx 2.6 mi NE of Hampton 42.773 -93.18</desc>
</wpt>
<wpt lat="43.312" lon="-94.705">
  <name>WOLD</name>
  <desc>WOLD/Wolden Rec Area  CP PH:712.867.4422     AMEN:E DP DW SH L$ approx 4.6 mi E of Wallingford 43.312 -94.705</desc>
</wpt>
<wpt lat="42.211" lon="-92.793">
  <name>WOLF</name>
  <desc>WOLF/Wolf Creek Rec Area  CP    SITES:22  AMEN:E VT DW L$ approx 10.5 mi S  of Grundy Center 42.211 -92.793</desc>
</wpt>
<wpt lat="42.893" lon="-92.802">
  <name>WUNS</name>
  <desc>WUNS/Wunsch Memorial Park  CP PH:319.278.4237  COMM:dupe   AMEN:E DP NS L$ approx 0.2 mi S  of Greene 42.893 -92.802</desc>
</wpt>
<wpt lat="41.551" lon="-93.472">
  <name>YELB</name>
  <desc>YELB/Yellow Banks County Park  CP PH:515.266.1563   SITES:60  AMEN:E DP DW SH approx 3.5 mi SE of Pleasant Hill 41.551 -93.472</desc>
</wpt>
<wpt lat="43.176" lon="-91.228">
  <name>YELL</name>
  <desc>YELL/Yellow River State Forest  SF PH:563.586.2254 all year COMM:3 campgrounds SITES:150  AMEN:NH RS L$ approx 4.1 mi SW of Harpers Ferry 43.176 -91.228</desc>
</wpt>
<wpt lat="42.03" lon="-95.315">
  <name>YELS</name>
  <desc>YELS/Yellow Smoke Park  CP PH:712.263.2748   SITES:60  AMEN:E DP DW SH approx 2.3 mi E of Denison 42.03 -95.315</desc>
</wpt>
<wpt lat="41.378" lon="-92.201">
  <name>YENR</name>
  <desc>YENR/Yenruogis County Park  CP   COMM:primitive   AMEN:NH ND NS approx 3.1 mi N of Sigourney 41.378 -92.201</desc>
</wpt>
<wpt lat="40.986" lon="-90.39">
  <name>ALLI</name>
  <desc>ALLI/Allison Lake Storey  CP PH:309.344.1534     AMEN:E DP L$ approx 2.8 mi N  of Galesburg 40.986 -90.39</desc>
</wpt>
<wpt lat="41.438" lon="-90.768">
  <name>ANDA</name>
  <desc>ANDA/Andalusia Slough - Missssippi River  COE PH:563.263.7913   SITES:25  AMEN:NH ND NS NR approx 11.5 mi SW of Davenport 41.438 -90.768</desc>
</wpt>
<wpt lat="40.195" lon="-90.204">
  <name>ANDE</name>
  <desc>ANDE/Anderson Lake State Conservation Area  SCA PH:309.759.4484   SITES:100  AMEN:NH DP NR approx 10.0 mi NE of Browning 40.195 -90.204</desc>
</wpt>
<wpt lat="42.449" lon="-90.052">
  <name>APPL</name>
  <desc>APPL/Apple River Canyon State Park  SP PH:815.745.3302 all year  SITES:50  AMEN:WES RS PA approx 4.6 mi SE of Apple River 42.449 -90.052</desc>
</wpt>
<wpt lat="40.453" lon="-90.801">
  <name>ARGY</name>
  <desc>ARGY/Argyle Lake State Park  SP PH:309.776.3422 early may-late dec  SITES:160  AMEN:E DP DW SH RS PA approx 1.9 mi N  of Colchester 40.453 -90.801</desc>
</wpt>
<wpt lat="37.826" lon="-88.91">
  <name>ARRO</name>
  <desc>ARRO/Arrowhead Lake  CP PH:618.983.3535 all year COMM:older place but clean and nice SITES:55  AMEN:WE DP FT DW SH L$ approx 1.0 mi NE of Johnston City 37.826 -88.91</desc>
</wpt>
<wpt lat="40.112" lon="-91.479">
  <name>BEAR</name>
  <desc>BEAR/Bear Creek - Mississippi River  COE PH:217.222.0918   SITES:30  AMEN:NH ND NS NR approx 5.9 mi W of Marcelline 40.112 -91.479</desc>
</wpt>
<wpt lat="39.211" lon="-89.976">
  <name>BEAV</name>
  <desc>BEAV/Beaver Dam State Park  SP PH:217.854.8020 early apr-late dec  SITES:75  AMEN:E DP DW SH RS PA approx 3.7 mi N of Plainview 39.211 -89.976</desc>
</wpt>
<wpt lat="41.054" lon="-90.939">
  <name>BIGR</name>
  <desc>BIGR/Big River State Forest  SF PH:309.374.2496   SITES:100  AMEN:NH NR approx 3.2 mi S  of Keithsburg 41.054 -90.939</desc>
</wpt>
<wpt lat="41.838" lon="-88.175">
  <name>BLAW</name>
  <desc>BLAW/Blackwell Forest Preserve  CP PH:630.933.7248   COMM:Camp Fri Sat nights only - more on holidays SITES:64  AMEN:E DP FT DW SH RS  41.838 -88.175</desc>
</wpt>
<wpt lat="41.348" lon="-91.056">
  <name>BLAI</name>
  <desc>BLAI/Blanchard Island - Mississippi River  COE PH:563.263.7913   SITES:35  AMEN:NH ND NS NR approx 5.3 mi S  of Muscatine 41.348 -91.056</desc>
</wpt>
<wpt lat="42.287" lon="-90.403">
  <name>BLAL</name>
  <desc>BLAL/Blanding Landing - Mississippi River  COE PH:563.582.0881 mid may-mid oct  SITES:40  AMEN:E DP DW SH RS PA L$ approx 6.6 mi W of Hanover 42.287 -90.403</desc>
</wpt>
<wpt lat="39.554" lon="-88.614">
  <name>BOWO</name>
  <desc>BOWO/Bo Wood  - Lake Shelbyville  COE PH:217.774.3951 mid apr-late oct  SITES:80  AMEN:WES DP SH RS approx 3.2 mi S  of Sullivan 39.554 -88.614</desc>
</wpt>
<wpt lat="38.695" lon="-89.236">
  <name>BOUL</name>
  <desc>BOUL/Boulder  - Lake Carlyle  COE PH:618.594.5253 mid apr-mid oct  SITES:90  AMEN:WES DP DW SH RS PA approx 9.4 mi NE of Carlyle 38.695 -89.236</desc>
</wpt>
<wpt lat="37.581" lon="-88.884">
  <name>BUCK</name>
  <desc>BUCK/Buck Ridge  -  Lake Of Egypt  NF PH:618.658.2111/618.253.7114   SITES:41  AMEN:NH NR approx 7.1 mi W of Ozark 37.581 -88.884</desc>
</wpt>
<wpt lat="38.1" lon="-88.194">
  <name>BURR</name>
  <desc>BURR/Burrell City Park  CP PH:618.382.9920     AMEN:E DP DW SH approx 2.0 mi W of Carmi. 38.1 -88.194</desc>
</wpt>